iata,name,lat,lon,country,
LCG,A Coruna Airport,43.302059,-8.37725,Spain,
AAH,Aachen Merzbruck Airport,50.823051,6.186111,Germany,
AAL,Aalborg Airport,57.092781,9.849164,Denmark,
AAR,Aarhus Airport,56.300011,10.619,Denmark,
QEA,Aarhus Sea Airport,56.151993,10.247725,Denmark,
JEG,Aasiaat Airport,68.72184,-52.784698,Greenland,
ABD,Abadan Airport,30.371111,48.228329,Iran,
ABA,Abakan International Airport,53.740002,91.385002,Russia,
YXX,Abbotsford International Airport,49.025269,-122.360001,Canada,
ABZ,Aberdeen International Airport,57.201939,-2.19777,United Kingdom,
ABR,Aberdeen Regional Airport,45.439999,-98.419998,United States,
AHB,Abha Regional Airport,18.24036,42.65662,Saudi Arabia,
ABJ,Abidjan Port Bouet Airport,5.261386,-3.92629,Cote D'ivoire (Ivory Coast),
ABI,Abilene Regional Airport,32.411301,-99.681801,United States,
VJI,Abingdon Virginia Highlands Airport,36.686111,-82.033333,United States,
AZI,Abu Dhabi Al Bateen Executive Airport,24.428329,54.45808,United Arab Emirates,
DHF,Abu Dhabi Al Dhafra Air Base,24.248199,54.547699,United Arab Emirates,
AUH,Abu Dhabi International Airport,24.43297,54.651131,United Arab Emirates,
AEU,Abu Musa Island Airport,25.8757,55.033001,Iran,
ABS,Abu Simbel Airport,22.37595,31.611719,Egypt,
ABV,Abuja Nnamdi Azikiwe International Airport,9.006792,7.263172,Nigeria,
ACA,Acapulco International Airport,16.757059,-99.753899,Mexico,
ACC,Accra Kotoka International Airport,5.605186,-0.16678,Ghana,
ADT,Ada Municipal Airport,34.804298,-96.671303,United States,
ADK,Adak Airport,51.87796,-176.645996,United States,
AIP,Adampur Airport,31.433056,75.760559,India,
ADA,Adana Sakirpasa Airport,36.982159,35.28038,Turkey,
ADD,Addis Ababa Bole Airport,8.977889,38.799309,Ethiopia,
ADL,Adelaide Airport,-34.945,138.530502,Australia,
ADE,Aden International Airport,12.82954,45.02879,Yemen,
ADF,Adiyaman Airport,37.731361,38.468929,Turkey,
AZR,Adrar Airport,27.83758,-0.18641,Algeria,
ADG,Adrian Lenawee County Airport,41.86607,-84.078293,United States,
AFO,Afton Municipal Airport,42.711201,-110.942001,United States,
AJY,Agades Mano Dayak International Airport,16.96599,8.000114,Niger,
AGA,Agadir Al Massira Airport,30.324989,-9.41306,Morocco,
IXA,Agartala Airport,23.886971,91.240448,India,
AGX,Agatti Airport,10.82365,72.176041,India,
AGF,Agen La Garenne Airport,44.174709,0.590619,France,
AKW,Aghajari Airport,30.7444,49.6772,Iran,
AGR,Agra Airport,27.15583,77.960892,India,
AJI,Agri Airport,39.65456,43.027149,Turkey,
GGB,Agua Boa Airport,-14.019444,-52.152222,Brazil,
HAY,Aguachica Hacaritama Airport,8.246203,-73.579628,Colombia,
BQN,Aguadilla Rafael Hernandez Airport,18.49486,-67.129402,Puerto Rico,
AGU,Aguascalientes International Airport,21.705549,-102.317001,Mexico,
AHE,Ahe Airport,-14.42759,-146.255981,French Polynesia,
AMD,Ahmedabad International Airport,23.07724,72.634651,India,
AWZ,Ahwaz International Airport,31.337429,48.761951,Iran,
AIK,Aiken Municipal Airport,33.649399,-81.684998,United States,
ROR,Airai Roman Tmetuchl International Airport,7.367303,134.544205,Palau,
AIT,Aitutaki Airport,-18.8309,-159.764008,Cook Islands,
QXB,Aix-en-Provence Airport,43.50528,5.367222,France,
AJL,Aizawl Lengpui Airport,23.838442,92.620361,India,
AJA,Ajaccio Napoleon Bonaparte Airport,41.923882,8.8025,France,
AKI,Akiak Airport,60.902901,-161.231003,United States,
AXT,Akita Airport,39.615551,140.218597,Japan,
LAK,Aklavik Airport,68.223297,-135.005997,Canada,
CAK,Akron Canton Airport,40.91608,-81.442101,United States,
AKC,Akron Fulton International Airport,41.037498,-81.466904,United States,
AKU,Aksu Airport,41.262501,80.291664,China,
SCO,Aktau Airport,43.86005,51.091969,Kazakhstan,
PVK,Aktion National Airport,38.925461,20.76531,Greece,
AKX,Aktobe Airport,50.245831,57.206661,Kazakhstan,
AKV,Akulivik Airport,60.818611,-78.148613,Canada,
AKR,Akure Airport,7.246739,5.301008,Nigeria,
AEY,Akureyri Airport,65.658607,-18.072201,Iceland,
AAN,Al Ain International Airport,24.26166,55.609161,United Arab Emirates,
AHU,Al Hoceima Cherif Al Idrissi Airport,35.177101,-3.83952,Morocco,
NJF,Al Najaf International Airport,31.991667,44.404167,Iraq,
XJD,Al Udeid Air Base,25.114941,51.316105,Qatar,
ULH,Al Ula  Airport,26.480862,38.116653,Saudi Arabia,
EJH,Al Wajh Airport,26.198334,36.476112,Saudi Arabia,
ABT,Al-Baha Domestic Airport,20.296129,41.63427,Saudi Arabia,
KAC,Al-Qamishli Airport,37.031025,41.205559,Syria,
ELQ,Al-Qassim International Airport,26.30282,43.773911,Saudi Arabia,
AUK,Alakanuk Airport,62.683056,-164.722198,United States,
ALM,Alamogordo White Sands Regional Airport,32.845833,-105.985275,United States,
ALS,Alamosa San Luis Valley Regional Airport,37.43491,-105.865997,United States,
ABC,Albacete Airport,38.948502,-1.86352,Spain,
ALH,Albany Airport,-34.939999,117.800003,Australia,
ALB,Albany International Airport,42.749111,-73.801903,United States,
ABY,Albany Southwest Georgia Regional Airport,31.535509,-84.194397,United States,
ALL,Albenga Clemente Panero International Airport,44.050598,8.127428,Italy,
BYF,Albert Picardie Airport,49.9715,2.69766,France,
LBI,Albi Le Sequestre Airport,43.913269,2.11675,France,
ABQ,Albuquerque International Airport,35.040218,-106.609001,United States,
ABX,Albury Airport,-36.067699,146.957993,Australia,
ADH,Aldan Airport,58.602772,125.408798,Russia,
ACI,Alderney Airport,49.706108,-2.21472,United Kingdom,
ALQ,Alegrete Novo Airport,-29.8127,-55.893398,Brazil,
ALP,Aleppo International Airport,36.180672,37.22435,Syria,
YLT,Alert Airport,82.517776,-62.280556,Canada,
AES,Alesund Vigra Airport,62.560371,6.110164,Norway,
ALX,Alexander City Thomas C Russell Field,32.933334,-85.949997,United States,
HBE,Alexandria Borg El Arab Airport,30.91766,29.6964,Egypt,
AEX,Alexandria International Airport,31.32737,-92.5485,United States,
AXN,Alexandria Municipal Airport,45.867222,-95.394165,United States,
AXD,Alexandroupolis International Airport,40.855862,25.956261,Greece,
QYH,Algeciras Heliport,36.128887,-5.441111,Spain,
AHO,Alghero Fertilia Airport,40.63213,8.290772,Italy,
ALG,Algiers Houari Boumediene Airport,36.69101,3.215408,Algeria,
ALC,Alicante Airport,38.282162,-0.55815,Spain,
ALI,Alice International Airport,27.740879,-98.026901,United States,
ASP,Alice Springs Airport,-23.806601,133.902206,Australia,
IXD,Allahabad Airport,25.439886,81.734406,India,
AET,Allakaket Airport,66.551804,-152.621994,United States,
QEQ,Allendorf Airport,51.035713,8.679523,Germany,
ABE,Allentown Lehigh Valley International Airport,40.652302,-75.440399,United States,
AIA,Alliance Municipal Airport,42.053219,-102.803001,United States,
YTF,Alma Airport,48.509655,-71.642715,Canada,
ALA,Almaty International Airport,43.35207,77.040497,Kazakhstan,
GGF,Almeirim Airport,-1.479167,-52.578056,Brazil,
LEI,Almeria Airport,36.843929,-2.37009,Spain,
ARD,Alor Island Airport,-8.13234,124.597,Indonesia,
AOR,Alor Setar Sultan Abdul Halim Airport,6.189667,100.398102,Malaysia,
APN,Alpena County Regional Airport,45.081669,-83.555832,United States,
ALF,Alta Airport,69.976112,23.37166,Norway,
AFL,Alta Floresta Airport,-9.86609,-56.106201,Brazil,
LTI,Altai Airport,46.650002,96.416664,Mongolia,
ATM,Altamira Airport,-3.2539,-52.253899,Brazil,
AAT,Altay Airport,47.750362,88.084442,China,
AOC,Altenburg Nobitz Airport,50.981812,12.50636,Germany,
QCA,Altenstadt Air Base,47.835518,10.870574,Germany,
ALN,Alton St. Louis Regional Airport,38.890301,-90.045998,United States,
AOO,Altoona Blair County Airport,40.296371,-78.32,United States,
AVR,Alverca Airport,38.884068,-9.029201,Portugal,
ZIS,Alzintan Airport,31.775,12.25,Libya,
AXJ,Amakusa Airport,32.483261,130.15564,Japan,
ASJ,Amami Airport,28.43063,129.712494,Japan,
AMA,Amarillo Rick Husband  International Airport,35.21936,-101.705002,United States,
TDW,Amarillo Tradewind Airport,35.169899,-101.825996,United States,
ABL,Ambler Airport,67.087502,-157.84584,United States,
AMQ,Ambon Pattimura Airport,-3.71026,128.089096,Indonesia,
ASV,Amboseli Airport,-2.633,37.25,Kenya,
AMW,Ames Municipal Airport,41.992001,-93.621803,United States,
ADJ,Amman Civil Airport,31.9727,35.991562,Jordan,
AMM,Amman Queen Alia International Airport,31.722549,35.99321,Jordan,
YEY,Amos Magny Airport,48.564838,-78.249146,Canada,
ATQ,Amritsar International Airport,31.709591,74.797256,India,
AMS,Amsterdam Schiphol Airport,52.308609,4.763889,Netherlands,
DYR,Anadyr Ugolny Airport,64.730003,177.740005,Russia,
AKP,Anaktuvuk Pass Airport,68.129997,-151.740005,United States,
AAQ,Anapa Airport,45.00209,37.347271,Russia,
APS,Anapolis Airport,-16.22714,-48.963783,Brazil,
EDF,Anchorage Elmendorf Air Force Base,61.251339,-149.806,United States,
MRI,Anchorage Merrill Field Airport,61.213539,-149.843994,United States,
ANC,Anchorage Ted Stevens International Airport,61.174358,-149.996002,United States,
AOI,Ancona Airport,43.616341,13.36231,Italy,
ANX,Andenes Andoya Airport,69.292503,16.144159,Norway,
AID,Anderson Municipal Airport,40.108665,-85.613815,United States,
AND,Anderson Regional Airport,34.494579,-82.709297,United States,
AZN,Andizhan Airport,40.72773,72.294006,Uzbekistan,
LEU,Andorra La Seu de Urgel Airport,42.34058,1.410326,Spain,
ASD,Andros Town International Airport,24.69828,-77.795601,Bahamas,
NGD,Anegada Auguste George Airport,18.727394,-64.330055,"Virgin Islands, British",
CRK,Angeles City Clark International Airport,15.18598,120.560303,Philippines,
AGH,Angelholm Helsingborg Airport,56.29607,12.84713,Sweden,
ANE,Angers Loire Airport,47.56028,-0.312222,France,
VLY,Anglesey Airport,53.240002,-4.53,United Kingdom,
ANQ,Angola Tri-State Steuben County Airport,41.639702,-85.083504,United States,
ANG,Angouleme Cognac International Airport,45.729469,0.219153,France,
GDR,Angra dos Reis Airport,-22.975279,-44.30722,Brazil,
ANI,Aniak Airport,61.581669,-159.54306,United States,
AJN,Anjouan Ouani Airport,-12.1316,44.430271,Comoros,
AKA,Ankang Fuqiang Airport,32.708099,108.931046,China,
ESB,Ankara Esenboga International Airport,40.128078,32.995079,Turkey,
QQK,Ankeny Regional Airport,41.691113,-93.566391,United States,
VBA,Ann Airport,19.770643,94.026405,Myanmar (Burma),
ARB,Ann Arbor Municipal Airport,42.223057,-83.74556,United States,
AAE,Annaba Rabah Bitat Airport,36.82222,7.809167,Algeria,
ANP,Annapolis Lee Airport,38.942902,-76.568398,United States,
NCY,Annecy Mont Blanc Airport,45.930771,6.106289,France,
QYA,Annemasse Airport,46.19194,6.269444,France,
ANB,Anniston Regional,33.588161,-85.858101,United States,
AQG,Anqing Tianzhushan Airport,30.582222,117.050278,China,
AOG,Anshan Teng'ao Airport,41.103523,122.855835,China,
AVA,Anshun Huangguoshu Airport,26.260555,105.873337,China,
HTY,Antakya Hatay Airport,36.362778,36.282223,Turkey,
AYT,Antalya Airport,36.898731,30.800461,Turkey,
TNR,Antananarivo Ivato International Airport,-18.7969,47.478802,Madagascar,
ANU,Antigua V. C. Bird International Airport,17.13674,-61.792599,Antigua And Barbuda,
ANF,Antofagasta International Airport,-23.444401,-70.445099,Chile,
DIE,Antsiranana Arrachart Airport,-12.3494,49.29174,Madagascar,
ANR,Antwerp International Airport,51.189442,4.460278,Belgium,
ANV,Anvik Airport,62.647778,-160.188889,United States,
AOJ,Aomori Airport,40.734718,140.690796,Japan,
AOT,Aosta Airport,45.738499,7.36872,Italy,
AAF,Apalachicola Regional Airport,29.733334,-84.98333,United States,
APO,Apartado Airport,7.817678,-76.717659,Colombia,
KVK,Apatity Airport,67.463303,33.588299,Russia,
APW,Apia Faleolo International Airport,-13.8296,-171.996994,Samoa,
APV,Apple Valley Airport,34.575298,-117.185997,United States,
ATW,Appleton International Airport,44.258091,-88.518997,United States,
APU,Apucarana Airport,-23.609501,-51.384499,Brazil,
IUP,Apui Airport,-7.1727,-59.839409,Brazil,
AQJ,Aqaba King Hussein International Airport,29.61161,35.018059,Jordan,
AJU,Aracaju Santa Maria Airport,-10.984,-37.070301,Brazil,
ARX,Aracati Airport,-4.56861,-37.804722,Brazil,
ARU,Aracatuba Airport,-21.1413,-50.424702,Brazil,
ARW,Arad International Airport,46.176552,21.26202,Romania,
AUX,Araguaina Airport,-7.227867,-48.240467,Brazil,
AJK,Arak Airport,34.1381,49.847301,Iran,
APX,Arapongas Airport,-23.3529,-51.491699,Brazil,
RAE,Arar Domestic Airport,30.90658,41.13821,Saudi Arabia,
AQA,Araraquara Airport,-21.812,-48.132999,Brazil,
JAW,Araripina Airport,-7.5864,-40.5354,Brazil,
AUC,Arauca Santiago Perez Quiroz Airport,7.068889,-70.7369,Colombia,
AAX,Araxa Airport,-19.562658,-46.961014,Brazil,
AMH,Arba Minch Airport,6.039389,37.59045,Ethiopia,
XAC,Arcachon La Teste-de-Buch Airport,44.59861,-1.11472,France,
ACV,Arcata Eureka Airport,40.978111,-124.108002,United States,
YAB,Arctic Bay Airport,73.006386,-85.047218,Canada,
ARC,Arctic Village,68.110001,-145.570007,United States,
ADU,Ardabil Airport,38.323826,48.421249,Iran,
AMZ,Ardmore Airport,-37.029701,174.973007,New Zealand,
ADM,Ardmore Municipal Airport,34.303009,-97.0196,United States,
QCG,Arendal Gullknapp Airport,58.518326,8.707467,Norway,
AQP,Arequipa Rodriguez Ballon International Airport,-16.341,-71.583,Peru,
GYL,Argyle Airport,-16.629999,128.449997,Australia,
ARI,Arica Chacalluta International Airport,-18.348499,-70.338699,Chile,
AIR,Aripuana Airport,-10.186673,-59.457531,Brazil,
AQM,Ariquemes Airport,-9.880993,-63.047237,Brazil,
ARH,Arkhangelsk Talagi Airport,64.600281,40.71666,Russia,
QQW,Arlington Municipal Airport,48.160831,-122.15889,United States,
QQG,Arlington Municipal Airport,32.66,-97.089996,United States,
AXM,Armenia El Eden International Airport,4.453333,-75.7658,Colombia,
ARM,Armidale Airport,-30.528334,151.616669,Australia,
ATS,Artesia Municipal Airport,32.852501,-104.468002,United States,
ATC,Arthur's Town Airport,24.628611,-75.671387,Bahamas,
ARK,Arusha Airport,-3.36779,36.633331,Tanzania,
AXR,Arutua Airport,-15.2463,-146.619995,French Polynesia,
YEK,Arviat Airport,61.094158,-94.070801,Canada,
AJR,Arvidsjaur Airport,65.590271,19.28194,Sweden,
YIE,Arxan Yiershi Airport,47.310555,119.911942,China,
ABB,Asaba International Airport,6.203055,6.667222,Nigeria,
AKJ,Asahikawa Airport,43.67083,142.447495,Japan,
ASI,Ascension Island Airport,-7.9696,-14.3937,Saint Helena,
AVL,Asheville Regional Airport,35.436192,-82.541801,United States,
ASB,Ashgabat International Airport,37.986809,58.360958,Turkmenistan,
ASM,Asmara International Airport,15.29185,38.91066,Eritrea,
ASO,Asosa Airport,10.01855,34.58625,Ethiopia,
ASE,Aspen Pitkin County Airport,39.22316,-106.867996,United States,
PGU,Assaluyeh Persian Gulf Airport,27.383959,52.735516,Iran,
ATZ,Assiut Airport,27.046499,31.01198,Egypt,
NQZ,Astana Nursultan Nazarbayev International Airport,51.022221,71.466942,Kazakhstan,
AST,Astoria Regional Airport,46.159721,-123.879997,United States,
ASF,Astrakhan Narimanovo Airport,46.283329,48.006271,Russia,
OVD,Asturias Airport,43.56356,-6.03462,Spain,
JTY,Astypalaia Island National Airport,36.579887,26.375822,Greece,
ASU,Asuncion Silvio Pettirossi International Airport,-25.239799,-57.5191,Paraguay,
ASW,Aswan International Airport,23.96435,32.819969,Egypt,
ABU,Atambua Haliwen Airport,-9.07444,124.904404,Indonesia,
AHN,Athens Ben Epps Airport,33.95195,-83.324722,United States,
ATH,Athens Eleftherios Venizelos,37.936352,23.94446,Greece,
ATO,Athens Gordon K. Bush Airport,39.210999,-82.2314,United States,
MMI,Athens McMinn County Airport,35.397221,-84.5625,United States,
QQR,Atlanta Cobb County Airport,34.013058,-84.59861,United States,
PDK,Atlanta DeKalb Peachtree Airport,33.869999,-84.300003,United States,
FTY,Atlanta Fulton County Airport,33.777195,-84.521141,United States,
ATL,Atlanta Hartsfield-Jackson International Airport,33.636719,-84.428001,United States,
QTF,Atlanta Regional Airport,33.357475,-84.572121,United States,
ACY,Atlantic City International Airport,39.457581,-74.577103,United States,
BLM,Atlantic City Monmouth Executive Airport,40.186668,-74.124443,United States,
ATK,Atqasuk Airport,70.5,-157.333328,United States,
YAT,Attawapiskat Airport,52.919998,-82.43,Canada,
AUQ,Atuona Airport,-9.76879,-139.011002,French Polynesia,
MER,Atwater Castle Airport,37.380482,-120.568001,United States,
GUW,Atyrau Airport,47.121941,51.821381,Kazakhstan,
LEW,Auburn Airport,44.048611,-70.283607,United States,
AUN,Auburn Municipal Airport,38.9548,-121.082001,United States,
AUO,Auburn University Regional Airport,32.615101,-85.433998,United States,
AKL,Auckland Airport,-37.007999,174.791595,New Zealand,
AGB,Augsburg Airport,48.425152,10.93176,Germany,
DNL,Augusta Daniel Field Airport,33.468098,-82.0392,United States,
AGS,Augusta Regional Airport,33.369942,-81.9645,United States,
AUG,Augusta State Airport,44.320648,-69.797302,United States,
YPJ,Aupaluk Airport,59.296665,-69.599724,Canada,
IXU,Aurangabad Airport,19.86272,75.398109,India,
AUR,Aurillac Tronquieres Airport,44.897579,2.416719,France,
AUU,Aurukun Airport,-13.353889,141.72084,Australia,
AUS,Austin Bergstrom International Airport,30.194521,-97.6698,United States,
EDC,Austin Executive Airport,30.389999,-97.559998,United States,
AUM,Austin Municipal Airport,43.663853,-92.933189,United States,
AUF,Auxerre Branches Airport,47.846321,3.496578,France,
AVX,Avalon Catalina Airport,33.404999,-118.415833,United States,
RAR,Avarua Rarotonga International Airport,-21.2027,-159.804993,Cook Islands,
AVB,Aviano Air Base,46.031879,12.59647,Italy,
AVN,Avignon Caumont Airport,43.906582,4.902028,France,
AVP,Avoca Wilkes-Barre/Scranton International Airport,41.33847,-75.723297,United States,
KHB,Awali Sakhir Air Base,26.034721,50.524445,Bahrain,
AWA,Awasa Airport,7.095,38.398335,Ethiopia,
AXU,Axum Airport,14.14675,38.772831,Ethiopia,
AYP,Ayacucho Airport,-13.1548,-74.204399,Peru,
AYQ,Ayers Rock Airport,-25.1861,130.975494,Australia,
BXB,Babo Airport,-2.53224,133.438797,Indonesia,
BCM,Bacau International Airport,46.521938,26.910271,Romania,
BCD,Bacolod City Silay International Airport,10.776905,123.018394,Philippines,
BJZ,Badajoz Airport,38.891251,-6.82133,Spain,
BDN,Badin Talhar Airport,24.841511,68.838402,Pakistan,
BDD,Badu Island Airport,-10.15,142.173401,Australia,
BFX,Bafoussam Airport,5.536919,10.35458,Cameroon,
BGX,Bage Comandante Gustavo Kraemer Airport,-31.390499,-54.112202,Brazil,
BGW,Baghdad International Airport,33.262501,44.234444,Iraq,
BGL,Baglung Airport,28.212799,83.666298,Nepal,
BAG,Baguio Loakan Airport,16.375099,120.619598,Philippines,
BHV,Bahawalpur Airport,29.348057,71.717781,Pakistan,
BHI,Bahia Blanca Comandante Espora Airport,-38.724899,-62.1693,Argentina,
BSC,Bahia Solano Jose Celestino Mutis Airport,6.202936,-77.394798,Colombia,
BJR,Bahir Dar Airport,11.60807,37.32164,Ethiopia,
BAH,Bahrain International Airport,26.27083,50.63361,Bahrain,
BAY,Baia Mare Airport,47.658379,23.47002,Romania,
DBC,Baicheng Chang'an Airport,45.50528,123.019722,China,
YBC,Baie Comeau Airport,49.1325,-68.204399,Canada,
BGE,Bainbridge Decatur County Airport,30.972855,-84.635307,United States,
BSJ,Bairnsdale Airport,-37.887501,147.567993,Australia,
AEB,Baise Bama Airport,23.719469,106.967773,China,
NBS,Baishan Changbaishan Airport,42.088055,127.548889,China,
BJW,Bajawa Turelelo Soa Airport,-8.7125,121.0625,Indonesia,
BKM,Bakelalan Airport,3.973691,115.617157,Malaysia,
BKE,Baker City Municipal Airport,44.837299,-117.808998,United States,
YBK,Baker Lake Airport,64.298882,-96.077698,Canada,
BFL,Bakersfield Meadows Field Airport,35.433861,-119.056999,United States,
GYD,Baku Heydar Aliyev International Airport,40.467499,50.046661,Azerbaijan,
BLB,Balboa Panama Pacifico International Airport,8.914011,-79.598091,Panama,
BPN,Balikpapan Sepinggan Airport,-1.26827,116.894402,Indonesia,
BXH,Balkhash Airport,46.893299,75.004997,Kazakhstan,
BBL,Ballera Airport,-27.408333,141.808334,Australia,
BNK,Ballina Byron Gateway Airport,-28.833799,153.5625,Australia,
BBA,Balmaceda Airport,-45.916,-71.6894,Chile,
MTN,Baltimore Martin State Airport,39.321667,-76.411667,United States,
BWI,Baltimore Washington International Airport,39.175362,-76.668297,United States,
BMR,Baltrum Airport,53.724724,7.373333,Germany,
BXR,Bam Airport,29.084208,58.449783,Iran,
ABM,Bamaga Northern Peninsula Airport,-10.9508,142.459396,Australia,
BKO,Bamako Senou International Airport,12.53354,-7.94994,Mali,
QCB,Bamberg Breitenau Airport,49.921146,10.915216,Germany,
BPC,Bamenda Airport,6.039239,10.12263,Cameroon,
HOE,Ban Houeisay Airport,20.260511,100.436783,Laos,
BTJ,Banda Aceh International Airport,5.523522,95.420372,Indonesia,
BND,Bandar Abbas International Airport,27.218309,56.37785,Iran,
TKG,Bandar Lampung Radin Inten II Airport,-5.2425,105.178886,Indonesia,
BDH,Bandar Lengeh Airport,26.532,54.824841,Iran,
BDO,Bandung Husein Sastranegara International Airport,-6.90062,107.576202,Indonesia,
DMK,Bangkok Don Mueang International Airport,13.9125,100.606697,Thailand,
BKK,Bangkok Suvarnabhumi Airport,13.6811,100.7472,Thailand,
BGR,Bangor International Airport,44.807442,-68.828102,United States,
BGF,Bangui Airport,4.398475,18.51878,Central African Republic,
BNX,Banja Luka International Airport,44.941441,17.297501,Bosnia And Herzegovina,
BDJ,Banjarmasin Syamsudin Noor Airport,-3.44235,114.762497,Indonesia,
BJL,Banjul International Airport,13.33796,-16.652201,Gambia,
BWU,Bankstown Airport,-33.9244,150.988297,Australia,
BSD,Baoshan Yunduan Airport,25.055182,99.16143,China,
BAV,Baotou Erliban Airport,40.55999,109.996902,China,
BRX,Barahona Maria Montez International Airport,18.251459,-71.120399,Dominican Republic,
BCI,Barcaldine Airport,-23.559168,145.301941,Australia,
BCN,Barcelona El Prat Airport,41.29707,2.078463,Spain,
BLA,Barcelona Jose Antonio Anzoategui International Airport,10.10713,-64.689102,Venezuela,
BAZ,Barcelos Airport,-0.98,-62.91,Brazil,
BRY,Bardstown Samuels Field Airport,37.814301,-85.499603,United States,
BDU,Bardufoss Airport,69.055748,18.54035,Norway,
BEK,Bareilly Airport,28.422232,79.450691,India,
BRI,Bari Karol Wojtyla Airport,41.138851,16.76059,Italy,
BYP,Barimunya Airport,-22.673889,119.166115,Australia,
BNS,Barinas Airport,8.619575,-70.220802,Venezuela,
BBN,Bario Airport,3.736944,115.469398,Malaysia,
BZL,Barisal Airport,22.798943,90.301445,Bangladesh,
BAX,Barnaul Airport,53.36377,83.538528,Russia,
BRM,Barquisimeto Jacinto Lara International Airport,10.04274,-69.358597,Venezuela,
BRR,Barra Airport,57.016998,-7.433,United Kingdom,
BPG,Barra do Garcas Airport,-15.8613,-52.388802,Brazil,
EJA,Barrancabermeja Yariguies Airport,7.024331,-73.806801,Colombia,
BAQ,Barranquilla Ernesto Cortissoz International Airport,10.88946,-74.780602,Colombia,
BRA,Barreiras Airport,-12.073056,-45.008331,Brazil,
BRB,Barreirinhas Airport,-2.756628,-42.802662,Brazil,
YLK,Barrie Lake Simcoe Regional Airport,44.48605,-79.555603,Canada,
BRW,Barrow Airport,71.285439,-156.766006,United States,
BWB,Barrow Island Airport,-20.864401,115.405998,Australia,
BWF,Barrow-in-Furness Walney Island Airport,54.131161,-3.26366,United Kingdom,
BTI,Barter Island LRRS Airport,70.131943,-143.623886,United States,
BVO,Bartlesville Municipal Airport,36.762501,-96.0112,United States,
BOW,Bartow Municipal Airport,27.943333,-81.783333,United States,
BSO,Basco Airport,20.453056,121.977776,Philippines,
BSL,Basel Mulhouse-Freiburg EuroAirport,47.5989,7.5283,France,
BSR,Basra International Airport,30.549061,47.66214,Iraq,
SKB,Basseterre Robert L. Bradshaw International Airport,17.31119,-62.718601,Saint Kitts And Nevis,
BIA,Bastia Poretta Airport,42.549999,9.484722,France,
BSG,Bata Airport,1.905469,9.805681,Equatorial Guinea,
BQJ,Batagay Airport,67.648888,134.695007,Russia,
BTH,Batam Hang Nadim Airport,1.121028,104.118698,Indonesia,
BVX,Batesville Regional Airport,35.7262,-91.647301,United States,
BUP,Bathinda Airport,30.2701,74.755798,India,
ZBF,Bathurst Airport,47.629719,-65.7388,Canada,
BHS,Bathurst Airport,-33.400002,149.649994,Australia,
BAL,Batman Airport,37.928959,41.116581,Turkey,
BLJ,Batna International Airport,35.759167,6.3225,Algeria,
BTR,Baton Rouge Metropolitan Airport,30.5329,-91.149803,United States,
BJF,Batsfjord Airport,70.600273,29.692499,Norway,
BTC,Batticaloa International Airport,7.705388,81.67762,Sri Lanka,
BTL,Battle Creek Kalamazoo International Airport,42.307301,-85.251503,United States,
BAM,Battle Mountain Airport,40.599747,-116.875999,United States,
BTW,Batu Licin Airport,-3.41241,115.995003,Indonesia,
BUS,Batumi International Airport,41.610271,41.599689,Georgia,
BUW,Bau-Bau Betoambari Airport,-5.48687,122.569,Indonesia,
BDE,Baudette International Airport,48.728382,-94.612091,United States,
JTC,Bauru Arealva Airport,-22.157778,-49.068333,Brazil,
RLK,Bayannur Tianjitai Airport,40.926388,107.738892,China,
BYU,Bayreuth Bindlacher Berg Airport,49.984421,11.63856,Germany,
HPY,Baytown Airport,29.785995,-94.952606,United States,
BZX,Bazhong Enyang Airport,31.738056,106.64389,China,
XBE,Bearskin Lake Airport,53.950001,-90.98333,Canada,
BIE,Beatrice Municipal Airport,40.299999,-96.75,United States,
BFT,Beaufort County Airport,32.410831,-80.635002,United States,
BPT,Beaumont Jack Brooks Regional Airport,29.95083,-94.020599,United States,
BMT,Beaumont Municipal Airport,30.0707,-94.215797,United States,
BFP,Beaver County Airport,40.772499,-80.391403,United States,
CBH,Bechar Boudghene Ben Ali Lotfi Airport,31.645412,-2.279816,Algeria,
BKW,Beckley Raleigh County Memorial Airport,37.784916,-81.125198,United States,
BED,Bedford Hanscom Field,42.469952,-71.289001,United States,
BEU,Bedourie Airport,-24.345043,139.459488,Australia,
EIS,Beef Island Terrance B. Lettsome Airport,18.44483,-64.5429,"Virgin Islands, British",
LAQ,Beida Al Abraq International Airport,32.788612,21.964167,Libya,
BHY,Beihai Fucheng Airport,21.53944,109.2938,China,
PEK,Beijing Capital International Airport,40.084152,116.592735,China,
PKX,Beijing Daxing International Airport,39.509167,116.410553,China,
NAY,Beijing Nanyuan Airport,39.782501,116.387779,China,
BEW,Beira Airport,-19.7964,34.907551,Mozambique,
BEY,Beirut Rafic Hariri International Airport,33.82093,35.48838,Lebanon,
BYJ,Beja International Airport,38.078888,-7.9325,Portugal,
BJA,Bejaia Soummam Airport,36.71199,5.069922,Algeria,
BGN,Belaya Gora Airport,68.556946,146.234726,Russia,
BEL,Belem Val de Cans International Airport,-1.37925,-48.4762,Brazil,
BHD,Belfast City George Best  Airport,54.61805,-5.8725,United Kingdom,
BFS,Belfast International Airport,54.657501,-6.21583,United Kingdom,
IXG,Belgaum Airport,15.85928,74.618294,India,
EGO,Belgorod International Airport,50.639999,36.59,Russia,
BEG,Belgrade Nikola Tesla Airport,44.818439,20.30913,Serbia,
BZE,Belize City Philip S. W. Goldson International Airport,17.539141,-88.308197,Belize,
TZA,Belize City Sir Barry Bowen Municipal Airport,17.516512,-88.194695,Belize,
QBC,Bella Coola Airport,52.387501,-126.595833,Canada,
ACB,Bellaire Antrim County Airport,44.988602,-85.198402,United States,
BIC,Belle Ile En Mer Airport,47.325184,-3.201334,France,
BLV,Belleville MidAmerica St. Louis Airport,38.54517,-89.835098,United States,
BLI,Bellingham International Airport,48.79269,-122.537003,United States,
PLU,Belo Horizonte Pampulha Airport,-19.851101,-43.9506,Brazil,
CNF,Belo Horizonte Tancredo Neves International Airport,-19.633699,-43.9688,Brazil,
EYK,Beloyarsk Airport,63.683056,66.68306,Russia,
BBP,Bembridge Airport,50.678055,-1.109444,United Kingdom,
BJI,Bemidji Regional Airport,47.509998,-94.93,United States,
BLN,Benalla Airport,-36.551899,146.007004,Australia,
BEB,Benbecula Airport,57.48111,-7.36277,United Kingdom,
BXG,Bendigo Airport,-36.739399,144.330002,Australia,
BLR,Bengaluru Kempegowda International Airport,13.198889,77.705559,India,
BEN,Benghazi Benina International Airport,32.096779,20.26947,Libya,
BKS,Bengkulu Fatmawati Soekarno Airport,-3.8637,102.338997,Indonesia,
BNC,Beni Airport,0.576373,29.47238,Democratic Republic Of The Congo,
BEM,Beni Mellal Airport,32.400002,-6.316667,Morocco,
BNI,Benin Airport,6.316981,5.599503,Nigeria,
BEH,Benton Harbor Southwest Michigan Regional Airport,42.128601,-86.428497,United States,
QTV,Bentonville Municipal Airport,36.345627,-94.219337,United States,
XNA,Bentonville Northwest Arkansas National Airport,36.28186,-94.306801,United States,
BQU,Bequia J.F. Mitchell Airport,12.9884,-61.262001,Saint Vincent And The Grenadines,
BBO,Berbera Airport,10.38916,44.941101,Somalia,
YBV,Berens River Airport,52.358696,-97.021408,Canada,
BGO,Bergen Flesland Airport,60.293381,5.218142,Norway,
WOE,Bergen op Zoom Woensdrecht Air Base Airport,51.4491,4.34203,Netherlands,
EGC,Bergerac Dordogne Perigord Airport,44.824429,0.520525,France,
BVG,Berlevag Airport,70.871384,29.034161,Norway,
BER,Berlin Brandenburg Airport,52.362877,13.503722,Germany,
BDA,Bermuda L.F. Wade International Airport,32.36404,-64.678703,Bermuda,
BRN,Bern Airport,46.914101,7.497153,Switzerland,
BTA,Bertoua Airport,4.548611,13.72611,Cameroon,
EZV,Beryozovo Airport,63.924583,65.044853,Russia,
QYB,Besancon La Veze Airport,47.2066,6.08368,France,
OGZ,Beslan Airport,43.205002,44.606667,Russia,
BET,Bethel Airport,60.77977,-161.837997,United States,
BTT,Bettles Airport,66.91394,-151.529007,United States,
BVY,Beverly Regional Airport,42.584202,-70.916496,United States,
BZR,Beziers Cap d'Agde Airport,43.323421,3.353397,France,
BDP,Bhadrapur Airport,26.570801,88.079597,Nepal,
BMO,Bhamo Banmaw Airport,24.268354,97.249054,Myanmar (Burma),
BHR,Bharatpur Airport,27.678049,84.429443,Nepal,
BHU,Bhavnagar Airport,21.752199,72.185181,India,
BHO,Bhopal Raja Bhoj Airport,23.28746,77.337372,India,
BBI,Bhubaneswar Biju Patnaik International Airport,20.24436,85.81778,India,
BHJ,Bhuj Airport,23.287821,69.670143,India,
BIK,Biak Frans Kaisiepo Airport,-1.19001,136.107895,Indonesia,
BXP,Biala Podlaska Airport,52.003056,23.143612,Poland,
BIQ,Biarritz Pays Basque Airport,43.468391,-1.523171,France,
IXX,Bidar Airport,17.908081,77.487144,India,
BFE,Bielefeld Airport,51.964722,8.544444,Germany,
QIC,Biella Cerrione Airport,45.495239,8.102928,Italy,
YTL,Big Trout Lake Airport,53.817501,-89.896896,Canada,
BFJ,Bijie Feixiong Airport,27.266666,105.479164,China,
BKB,Bikaner Nal Airport,28.070601,73.207199,India,
PAB,Bilaspur Airport,21.988333,82.111115,India,
BIO,Bilbao Airport,43.30109,-2.9106,Spain,
BIU,Bildudalur Airport,65.641388,-23.54611,Iceland,
BIL,Billings Logan International Airport,45.807659,-108.542,United States,
BLL,Billund Airport,55.740318,9.151778,Denmark,
BMU,Bima Sultan Muhammad Salahudin Airport,-8.53964,118.687302,Indonesia,
BGG,Bingol Airport,38.861111,40.592499,Turkey,
BTU,Bintulu Airport,3.12385,113.020401,Malaysia,
BIR,Biratnagar Airport,26.484159,87.264442,Nepal,
KBC,Birch Creek Airport,66.27504,-145.817902,United States,
BVI,Birdsville Airport,-25.898333,139.343338,Australia,
XBJ,Birjand International Airport,32.898048,59.266109,Iran,
BHX,Birmingham Airport,52.45385,-1.74802,United Kingdom,
BHM,Birmingham Shuttlesworth International Airport,33.563881,-86.752296,United States,
BHH,Bisha Domestic Airport,19.98435,42.62088,Saudi Arabia,
FRU,Bishkek Manas International Airport,43.061298,74.477547,Kyrgyzstan,
BIH,Bishop Eastern Sierra Regional Airport,37.3731,-118.363998,United States,
BSK,Biskra Airport,34.793282,5.738231,Algeria,
BIS,Bismarck Municipal Airport,46.774479,-100.758209,United States,
OXB,Bissau Osvaldo Vieira International Airport,11.8947,-15.6536,Guinea-Bissau,
BBJ,Bitburg Airport,49.945332,6.565,Germany,
YBI,Black Tickle Airport,53.469398,-55.785,Canada,
BKQ,Blackall Airport,-24.4277,145.428604,Australia,
BBS,Blackbushe Airport,51.323879,-0.8475,United Kingdom,
BLK,Blackpool International Airport,53.772106,-3.038085,United Kingdom,
BCB,Blacksburg Virginia Tech Montgomery Executive Airport,37.2076,-80.407799,United States,
BQS,Blagoveshchensk Ignatyevo Airport,50.425388,127.412399,Russia,
BDG,Blanding Municipal Airport,37.583233,-109.483215,United States,
BLZ,Blantyre Chileka International Airport,-15.679,34.97401,Malawi,
BHE,Blenheim Woodbourne Airport,-41.518299,173.870193,New Zealand,
BWX,Blimbingsari Airport,-8.31,114.340279,Indonesia,
BID,Block Island Airport,41.169434,-71.579613,United States,
BFN,Bloemfontein Airport,-29.092699,26.302441,South Africa,
QYO,Blois Le Breuil Airport,47.678616,1.208735,France,
BLO,Blonduos Airport,65.644997,-20.2875,Iceland,
BMI,Bloomington Central Illinois Regional Airport,40.477112,-88.915901,United States,
BMG,Bloomington Monroe County Airport,39.139999,-86.610001,United States,
TRI,Blountville Tri-Cities Regional Airport,36.47522,-82.407402,United States,
BEF,Bluefields Airport,11.99096,-83.774002,Nicaragua,
BLH,Blythe Airport,33.616505,-114.716782,United States,
BYH,Blytheville Arkansas International Airport,35.96434,-89.943901,United States,
KBS,Bo Airport,7.95,-11.767,Sierra Leone,
BVB,Boa Vista International Airport,2.846311,-60.689999,Brazil,
BVC,Boa Vista Rabil Airport,16.13653,-22.8888,Cape Verde,
BCT,Boca Raton Airport,26.3785,-80.107597,United States,
BOC,Bocas Del Toro International Airport,9.340853,-82.250801,Panama,
ODO,Bodaybo Airport,57.860001,114.239998,Russia,
BOO,Bodo Airport,67.269157,14.36527,Norway,
BJV,Bodrum Milas Airport,37.25061,27.66431,Turkey,
BOG,Bogota El Dorado International Airport,4.703056,-74.138298,Colombia,
GIC,Boigu Island Airport,-9.233333,142.21666,Australia,
BOI,Boise Airport,43.564362,-116.222,United States,
BJB,Bojnord Airport,37.489719,57.308849,Iran,
KQT,Bokhtar International Airport,37.866337,68.864517,Tajikistan,
BWK,Bol Brac Airport,43.285702,16.679701,Croatia,
BPL,Bole Alashankou Airport,44.895,82.299721,China,
BLQ,Bologna Guglielmo Marconi Airport,44.535439,11.28866,Italy,
BZO,Bolzano Airport,46.46019,11.32638,Italy,
BON,Bonaire Flamingo International Airport,12.13104,-68.268501,Netherlands,
YVB,Bonaventure Airport,48.07111,-65.460281,Canada,
BYO,Bonito Airport,-21.247299,-56.452499,Brazil,
QCH,Bonn Hangelar Airport,50.76889,7.163333,Germany,
YBY,Bonnyville Airport,54.299999,-110.739998,Canada,
OCM,Boolgeeda Airport,-22.540001,117.275002,Australia,
TGP,Bor Podkamennaya Tunguska Airport,61.59,89.979446,Russia,
BOB,Bora Bora Airport,-16.4443,-151.751007,French Polynesia,
BOD,Bordeaux Merignac Airport,44.828609,-0.71527,France,
BGD,Borger Hutchinson County Airport,35.700901,-101.393997,United States,
BMK,Borkum Airport,53.595501,6.709167,Germany,
BLE,Borlange Dala Airport,60.422009,15.51521,Sweden,
RNN,Bornholm Airport,55.063259,14.75955,Denmark,
BPA,Borongan Airport,11.67484,125.479462,Philippines,
BSA,Bosaso Airport,11.283333,49.150002,Somalia,
BST,Bost Airport,31.55901,64.36409,Afghanistan,
BOS,Boston Logan International Airport,42.362968,-71.006401,United States,
BYK,Bouake Airport,7.7388,-5.07366,Cote D'ivoire (Ivory Coast),
UAR,Bouarfa Airport,32.514172,-1.98167,Morocco,
BLD,Boulder City Municipal Airport,35.946777,-114.856377,United States,
WBU,Boulder Municipal Airport,40.039398,-105.225998,United States,
BQL,Boulia Airport,-22.9,139.899994,Australia,
BTF,Bountiful Skypark Airport,40.8694,-111.927002,United States,
QYY,Bourg-en-Bresse Ceyzeriat Airport,46.202198,5.291796,France,
BOU,Bourges Airport,47.064449,2.378953,France,
BRK,Bourke Airport,-30.0392,145.951996,Australia,
BOH,Bournemouth Airport,50.779999,-1.8425,United Kingdom,
BVJ,Bovanenkovo Airport,70.315277,68.333611,Russia,
BWG,Bowling Green Warren County Regional Airport,36.962223,-86.422218,United States,
BZN,Bozeman Yellowstone International Airport,45.777458,-111.152,United States,
BFD,Bradford Regional Airport,41.802223,-78.639442,United States,
BGZ,Braga Airport,41.587101,-8.44514,Portugal,
BGC,Braganca Airport,41.8578,-6.70712,Portugal,
BRD,Brainerd Lakes Regional Airport,46.397221,-94.137497,United States,
YBR,Brandon Municipal Airport,49.91,-99.951897,Canada,
BKG,Branson Airport,36.532082,-93.2005,United States,
BSB,Brasilia International Airport,-15.8711,-47.918598,Brazil,
GHV,Brasov Airport,45.706043,25.52339,Romania,
BTS,Bratislava M. R. Stefanik Airport,48.170158,17.21266,Slovakia,
BTK,Bratsk Airport,56.370548,101.698303,Russia,
BWE,Braunschweig Airport,52.31916,10.55611,Germany,
BWC,Brawley Municipal Airport,32.992901,-115.516998,United States,
BZV,Brazzaville Maya Maya Airport,-4.2517,15.25303,Congo,
QHS,Breda International Airport,51.554962,4.553187,Netherlands,
OLA,Brekstad Orland Airport,63.698898,9.604003,Norway,
BRE,Bremen Airport,53.047501,8.786667,Germany,
PWT,Bremerton National Airport,47.485001,-122.763336,United States,
VBS,Brescia Montichiari Airport,45.428879,10.33055,Italy,
QIB,Bresso Airport,45.539577,9.202372,Italy,
BQT,Brest Airport,52.116669,23.883333,Belarus,
BES,Brest Bretagne Airport,48.44722,-4.42166,France,
BVS,Breves Airport,-1.636789,-50.443901,Brazil,
KTS,Brevig Mission Airport,65.331299,-166.466003,United States,
BIV,Bria Airport,6.527778,21.989441,Central African Republic,
BGI,Bridgetown Grantley Adams International Airport,13.0746,-59.492401,Barbados,
BMC,Brigham City Airport,41.549168,-112.062225,United States,
ESH,Brighton City Shoreham Airport,50.835548,-0.29722,United Kingdom,
BDS,Brindisi Airport,40.657631,17.947029,Italy,
BNE,Brisbane Airport,-27.3841,153.117493,Australia,
BRS,Bristol Airport,51.38266,-2.71908,United Kingdom,
BVE,Brive Souillac Airport,45.040031,1.487762,France,
BRQ,Brno Turany Airport,49.15126,16.694429,Czechia,
YBT,Brochet Airport,57.889439,-101.678001,Canada,
BBW,Broken Bow Municipal Airport,41.436436,-99.642082,United States,
BHQ,Broken Hill Airport,-31.998983,141.468567,Australia,
ZBM,Bromont Airport,45.290798,-72.741402,Canada,
BNN,Bronnoysund Airport,65.461113,12.2175,Norway,
BKX,Brookings Airport,44.303333,-96.811111,United States,
BME,Broome International Airport,-17.9447,122.231598,Australia,
BRO,Brownsville South Padre Island International Airport,25.90683,-97.425797,United States,
BWD,Brownwood Regional Airport,31.794722,-98.956665,United States,
BWN,Brunei International Airport,4.9442,114.928299,Brunei,
BQK,Brunswick Golden Isles Airport,31.258801,-81.4664,United States,
SSI,Brunswick Malcolm McKinnon Airport,31.15,-81.389999,United States,
BRU,Brussels Airport,50.901379,4.484444,Belgium,
CRL,Brussels South Charleroi Airport,50.459999,4.452778,Belgium,
CFD,Bryan Coulter Field,30.715691,-96.331299,United States,
BZK,Bryansk International Airport,53.214191,34.176441,Russia,
BGA,Bucaramanga Palonegro International Airport,7.126944,-73.184998,Colombia,
BBU,Bucharest Aurel Vlaicu Airport,44.503189,26.10211,Romania,
OTP,Bucharest Henri Coanda International Airport,44.572159,26.102171,Romania,
BKC,Buckland Airport,65.978889,-161.126663,United States,
QEB,Budapest Budaors Airport,47.450832,18.980556,Hungary,
BUD,Budapest Ferenc Liszt International Airport,47.436932,19.25559,Hungary,
QHB,Budel Kempen Airport,51.2561,5.601917,Netherlands,
BUN,Buenaventura Gerardo Tobar Lopez Airport,3.819592,-76.989601,Colombia,
AEP,Buenos Aires Jorge Newbery Airport,-34.559101,-58.4156,Argentina,
EZE,Buenos Aires Ministro Pistarini International Airport,-34.822201,-58.535801,Argentina,
YVT,Buffalo Narrows Airport,55.841942,-108.417,Canada,
BUF,Buffalo Niagara International Airport,42.940521,-78.732101,United States,
UUA,Bugulma Airport,54.630001,52.790001,Russia,
BJM,Bujumbura International Airport,-3.32401,29.31851,Burundi,
BUA,Buka Airport,-5.42232,154.673004,Papua New Guinea,
BHK,Bukhara International Airport,39.775002,64.48333,Uzbekistan,
BKZ,Bukoba Airport,-1.330269,31.818968,Tanzania,
BUQ,Bulawayo Joshua Mqabuko Nkomo International Airport,-20.017401,28.617861,Zimbabwe,
IFP,Bullhead International Airport,35.155972,-114.558998,United States,
BUY,Bunbury Airport,-33.378056,115.676941,Australia,
BDB,Bundaberg Airport,-24.898708,152.321869,Australia,
BUX,Bunia Airport,1.565719,30.220831,Democratic Republic Of The Congo,
QQF,Bunnell Flagler County Airport,29.467501,-81.20639,United States,
BXO,Buochs Airport,46.974445,8.396944,Switzerland,
UOL,Buol Airport,1.1027,121.414101,Indonesia,
BMV,Buon Ma Thuot Airport,12.66831,108.120201,Vietnam,
BUR,Burbank Bob Hope Airport,34.200661,-118.358002,United States,
BOJ,Burgas Airport,42.56958,27.51523,Bulgaria,
RGS,Burgos Airport,42.357498,-3.613611,Spain,
BFV,Buriram Airport,15.2295,103.252998,Thailand,
BYI,Burley Municipal Airport,42.542599,-113.772003,United States,
QQY,Burlington Alamance Regional Airport,36.048611,-79.474998,United States,
BTV,Burlington International Airport,44.471859,-73.153198,United States,
QQU,Burlington Municipal Airport,42.691944,-88.303886,United States,
BRL,Burlington Southeast Iowa Regional Airport,40.78611,-91.123337,United States,
MVW,Burlington/Mount Vernon Skagit Regional Airport,48.472748,-122.417976,United States,
BWT,Burnie Airport,-40.99889,145.73111,Australia,
YPZ,Burns Lake Airport,54.376427,-125.951256,Canada,
KJI,Burqin Kanas Airport,48.221111,86.998055,China,
YEI,Bursa Yenisehir Airport,40.255001,29.5625,Turkey,
PUS,Busan Gimhae International Airport,35.17952,128.938202,South Korea,
BUZ,Bushehr Airport,28.944811,50.834629,Iran,
BQB,Busselton Regional Airport,-33.687222,115.400276,Australia,
USU,Busuanga Airport,12.121458,120.100029,Philippines,
BBG,Butaritari Airport,3.086669,172.81221,Kiribati,
BTP,Butler Regional Airport,40.776901,-79.949699,United States,
BTM,Butte Bert Mooney Airport,45.951111,-112.493889,United States,
BXU,Butuan Bancasi Airport,8.951322,125.477898,Philippines,
BZG,Bydgoszcz Ignacy Jan Paderewski Airport,53.096802,17.977659,Poland,
CAH,Ca Mau Airport,9.177667,105.17778,Vietnam,
CAB,Cabinda Airport,-5.59699,12.18835,Angola,
CFB,Cabo Frio International Airport,-22.92,-42.07,Brazil,
CSL,Cabo San Lucas International Airport,22.947701,-109.936996,Mexico,
OAL,Cacoal Airport,-11.496,-61.450802,Brazil,
CAD,Cadillac Wexford County Airport,44.276066,-85.420662,United States,
CFR,Caen Carpiquet Airport,49.173279,-0.44987,France,
QKC,Caernarfon Airport,53.101665,-4.3375,United Kingdom,
CGY,Cagayan de Oro Laguindingan Airport,8.6125,124.457222,Philippines,
CAG,Cagliari Elmas Airport,39.251461,9.054283,Italy,
ZAO,Cahors Lalbenque Airport,44.35183,1.476396,France,
CNS,Cairns Airport,-16.885799,145.755203,Australia,
CCE,Cairo Capital International Airport,30.07222,31.83333,Egypt,
CAI,Cairo International Airport,30.121941,31.40555,Egypt,
CJA,Cajamarca Airport,-7.13918,-78.489403,Peru,
CBQ,Calabar Margaret Ekpo International Airport,4.976019,8.347196,Nigeria,
CQF,Calais Dunkerque Airport,50.96093,1.951433,France,
CJC,Calama El Loa Airport,-22.4981,-68.903503,Chile,
CYP,Calbayog Airport,12.075833,124.543053,Philippines,
CLV,Caldas Novas Airport,-17.724722,-48.610001,Brazil,
CDW,Caldwell Essex County Airport,40.875004,-74.280212,United States,
CXL,Calexico International Airport,32.667458,-115.517677,United States,
YYC,Calgary International Airport,51.11388,-114.019997,Canada,
CLO,Cali Alfonso Bonilla Aragon International Airport,3.543056,-76.381599,Colombia,
CUD,Caloundra Airport,-26.799999,153.100006,Australia,
CLY,Calvi Sainte-Catherine Airport,42.520359,8.793028,France,
CMW,Camaguey Ignacio Agramonte International Airport,21.42042,-77.847397,Cuba,
QTC,Camarillo Airport,34.213715,-119.090408,United States,
CBG,Cambridge Airport,52.205002,0.175,United Kingdom,
YCB,Cambridge Bay Airport,69.108047,-105.138,Canada,
CGE,Cambridge Dorchester Airport,38.539299,-76.030403,United States,
CDU,Camden Airport,-34.040199,150.687195,Australia,
ADW,Camp Springs Joint Base Andrews,38.809425,-76.867081,United States,
YBL,Campbell River Airport,49.950829,-125.269997,Canada,
CAL,Campbeltown Airport,55.43,-5.68,United Kingdom,
CPE,Campeche International Airport,19.81679,-90.500298,Mexico,
CPV,Campina Grande Airport,-7.26991,-35.896301,Brazil,
VCP,Campinas Viracopos International Airport,-23.007299,-47.134499,Brazil,
CGR,Campo Grande International Airport,-20.468599,-54.672501,Brazil,
CBW,Campo Mourao Airport,-24.009199,-52.3568,Brazil,
CAW,Campos dos Goytacazes Bartolomeu Lysandro Airport,-21.698299,-41.301601,Brazil,
VCA,Can Tho International Airport,10.08,105.709999,Vietnam,
CAJ,Canaima Airport,6.232096,-62.854851,Venezuela,
CKZ,Canakkale Airport,40.137718,26.426769,Turkey,
CBR,Canberra International Airport,-35.3069,149.195007,Australia,
CUN,Cancun International Airport,21.03652,-86.876999,Mexico,
CEL,Canela Airport,-29.370556,-50.832222,Brazil,
CWJ,Cangyuan Washan Airport,23.273478,99.369987,China,
CEQ,Cannes Mandelieu Airport,43.546379,6.954167,France,
CIW,Canouan Airport,12.69904,-61.3424,Saint Vincent And The Grenadines,
QQC,Canton Cherokee County Regional Airport,34.310555,-84.423889,United States,
CSK,Cap Skirring Airport,12.394692,-16.747387,Senegal,
CAP,Cap-Haitien International Airport,19.732981,-72.194702,Haiti,
YTE,Cape Dorset Airport,64.230003,-76.526604,Canada,
CGI,Cape Girardeau Regional Airport,37.225311,-89.570702,United States,
WWD,Cape May County,39.008499,-74.908203,United States,
CPT,Cape Town International Airport,-33.964802,18.60166,South Africa,
CCS,Caracas Simon Bolivar International Airport,10.60311,-66.990501,Venezuela,
CKS,Carajas Airport,-6.114749,-50.001945,Brazil,
CSB,Caransebes Airport,45.42004,22.252792,Romania,
CAF,Carauari Airport,-4.87152,-66.897499,Brazil,
MDH,Carbondale Murphysboro Southern Illinois Airport,37.778099,-89.251999,United States,
CCF,Carcassonne Airport,43.215809,2.308544,France,
CWL,Cardiff Airport,51.396469,-3.33753,United Kingdom,
CAX,Carlisle Lake District Airport,54.9375,-2.80916,United Kingdom,
CNM,Carlsbad Cavern City Air Terminal Airport,32.337471,-104.263,United States,
CVQ,Carnarvon Airport,-24.880501,113.672203,Australia,
WCD,Carosue Dam Airport,-30.1737,122.322098,Australia,
CZT,Carrizo Springs Dimmit County Airport,28.52236,-99.823753,United States,
CSN,Carson Airport,39.1922,-119.734001,United States,
CTG,Cartagena Rafael Nunez International Airport,10.4425,-75.512703,Colombia,
QQV,Cartersville Airport,34.123055,-84.84861,United States,
YRF,Cartwright Airport,53.682999,-57.033001,Canada,
CAU,Caruaru Airport,-8.28239,-36.0135,Brazil,
CGZ,Casa Grande Municipal Airport,32.955158,-111.766068,United States,
CMN,Casablanca Mohammed V International Airport,33.367458,-7.58996,Morocco,
CAT,Cascais Municipal Aerodrome,38.725555,-9.355278,Portugal,
CAC,Cascavel Adalberto Mendes da Silva Airport,-25.000299,-53.500702,Brazil,
CPR,Casper Natrona County International Airport,42.908001,-106.463997,United States,
CST,Castaway Island Airport,-17.733299,177.126907,Fiji,
CDT,Castellon Costa Azahar Airport,40.209721,0.069722,Spain,
YCG,Castlegar West Kootenay Regional Airport,49.296379,-117.632004,Canada,
DCM,Castres Mazamet Airport,43.554958,2.290592,France,
SLU,Castries George F. L. Charles Airport,14.02022,-60.992901,Saint Lucia,
MHC,Castro Mocopulli Airport,-42.346111,-73.71389,Chile,
CXY,Cat Cays Airport,25.554428,-79.275352,Bahamas,
YAC,Cat Lake Airport,51.716667,-91.816666,Canada,
CTC,Catamarca International Airport,-28.593201,-65.7509,Argentina,
CTA,Catania Fontanarossa Airport,37.466782,15.0664,Italy,
CRM,Catarman National Airport,12.483333,124.583336,Philippines,
MPH,Caticlan Boracay Airport,11.92,121.949997,Philippines,
CBT,Catumbela Airport,-12.4791,13.48694,Angola,
CYZ,Cauayan Airport,16.93,121.753059,Philippines,
CAQ,Caucasia Juan H. White Airport,7.96847,-75.198502,Colombia,
CXJ,Caxias do Sul Airport,-29.197001,-51.1875,Brazil,
CUK,Caye Caulker Airport,17.735001,-88.029442,Belize,
CAY,Cayenne Felix Eboue Airport,4.819722,-52.3619,French Guiana,
CYB,Cayman Brac Charles Kirkconnell International Airport,19.686979,-79.882698,Cayman Islands,
CCC,Cayo Coco Jardines del Rey Airport,22.461111,-78.328613,Cuba,
CYO,Cayo Largo del Sur Vilo Acuna Airport,21.616449,-81.545898,Cuba,
CEB,Cebu Mactan International Airport,10.30754,123.979401,Philippines,
CDC,Cedar City Regional Airport,37.700958,-113.098,United States,
CDK,Cedar Key George T. Lewis Airport,29.134064,-83.050781,United States,
CID,Cedar Rapids Eastern Iowa Airport,41.884682,-91.710701,United States,
CED,Ceduna Airport,-32.130554,133.709717,Australia,
NRR,Ceiba Jose Aponte de la Torre Airport,18.250284,-65.63575,Puerto Rico,
QCC,Celle Air Base,52.59111,10.022222,Germany,
JCL,Ceske Budejovice Airport,48.946388,14.428056,Czechia,
CES,Cessnock Airport,-32.787498,151.341995,Australia,
JCU,Ceuta Heliport,35.892799,-5.30639,Spain,
ZBR,Chabahar Konarak Airport,25.44335,60.382111,Iran,
CHH,Chachapoyas Airport,-6.2018,-77.856003,Peru,
CDR,Chadron Municipal Airport,42.834999,-103.097778,United States,
CCN,Chaghcharan Airport,34.526661,65.27166,Afghanistan,
CIK,Chalkyitsik Airport,66.644997,-143.740005,United States,
CMF,Chambery Airport,45.639069,5.880086,France,
CMI,Champaign University of Illinois Willard Airport,40.039665,-88.269051,United States,
IXC,Chandigarh Airport,30.67346,76.788544,India,
CGQ,Changchun Longjia International Airport,43.996208,125.685303,China,
CGD,Changde Taohuayuan Airport,28.91888,111.640198,China,
CSX,Changsha Huanghua International Airport,28.191599,113.223534,China,
CHX,Changuinola International Airport,9.458636,-82.5168,Panama,
CIH,Changzhi Wangcun Airport,36.247501,113.125801,China,
CZX,Changzhou Benniu Airport,31.91972,119.778603,China,
CHQ,Chania International Airport,35.531738,24.14967,Greece,
CHG,Chaoyang Airport,41.538101,120.434998,China,
XAP,Chapeco Airport,-27.134199,-52.656502,Brazil,
JZI,Charleston Executive Airport,32.700001,-80,United States,
CHS,Charleston International Airport,32.898628,-80.040497,United States,
CRW,Charleston West Virginia International Yeager Airport,38.373508,-81.596146,United States,
CTL,Charleville Airport,-26.4133,146.262497,Australia,
QTX,Charlevoix Municipal Airport,45.304722,-85.275276,United States,
QTM,Charlevoix Municipal Airport,45.304722,-85.275276,United States,
YCL,Charlo Airport,47.990829,-66.3302,Canada,
CLT,Charlotte Douglas International Airport,35.214001,-80.9431,United States,
CHO,Charlottesville Albemarle Airport,38.138638,-78.452858,United States,
YYG,Charlottetown Airport,46.290001,-63.121101,Canada,
YHG,Charlottetown Airport,52.765457,-56.118263,Canada,
CHR,Chateauroux Centre Marcel Dassault Airport,46.860271,1.721111,France,
CHT,Chatham Island Tuuta Airport,-43.812897,-176.469711,New Zealand,
XCM,Chatham-Kent Airport Airport,42.306335,-82.081604,Canada,
CHA,Chattanooga Metropolitan Airport,35.035191,-85.203499,United States,
CHV,Chaves Airport,41.722324,-7.46315,Portugal,
CSY,Cheboksary Airport,56.09,47.34,Russia,
CYF,Chefornak Airport,60.216667,-164.199997,United States,
CLS,Chehalis Centralia Airport,46.676998,-122.983002,United States,
CEK,Chelyabinsk Airport,55.305828,61.50333,Russia,
CDE,Chengde Puning Airport,41.122501,118.073891,China,
CTU,Chengdu Shuangliu International Airport,30.57852,103.946999,China,
TFU,Chengdu Tianfu International Airport,30.319,104.445,China,
MAA,Chennai International Airport,12.99441,80.180511,India,
HCZ,Chenzhou Beihu Airport,25.753263,112.845192,China,
CJJ,Cheongju International Airport,36.716599,127.4991,South Korea,
CER,Cherbourg Maupertus Airport,49.650829,-1.47527,France,
CEE,Cherepovets Airport,59.276669,38.028332,Russia,
CWC,Chernivtsi International Airport,48.259319,25.980829,Ukraine,
QQP,Chesapeake Regional Airport,36.665558,-76.320557,United States,
CEG,Chester Hawarden Airport,53.178051,-2.97777,United Kingdom,
CTM,Chetumal International Airport,18.50466,-88.326797,Mexico,
YCQ,Chetwynd Airport,55.687344,-121.625969,Canada,
VAK,Chevak Airport,61.540901,-165.600494,United States,
YHR,Chevery Airport,50.468933,-59.636696,Canada,
CYS,Cheyenne Regional Airport,41.155628,-104.809998,United States,
CNX,Chiang Mai International Airport,18.76684,98.962639,Thailand,
CEI,Chiang Rai International Airport,19.952339,99.882919,Thailand,
CYI,Chiayi Airport,23.461769,120.392799,Taiwan,
YMT,Chibougamau Chapais Airport,49.771938,-74.528,Canada,
AUZ,Chicago Aurora Municipal Airport,41.7719,-88.4757,United States,
DPA,Chicago DuPage Airport,41.90694,-88.248199,United States,
PWK,Chicago Executive Airport,42.114166,-87.901665,United States,
GYY,Chicago Gary International,41.610001,-87.410004,United States,
QQI,Chicago Lansing Municipal Airport,41.535,-87.529442,United States,
MDW,Chicago Midway International Airport,41.785969,-87.752403,United States,
ORD,Chicago O'Hare International Airport,41.978142,-87.9058,United States,
RFD,Chicago Rockford International Airport,42.195278,-89.097221,United States,
UGN,Chicago Waukegan National Airport,42.422161,-87.867897,United States,
QUG,Chichester Goodwood Airport,50.859402,-0.759167,United Kingdom,
CIX,Chiclayo International Airport,-6.78747,-79.828003,Peru,
CIC,Chico Municipal Airport,39.79538,-121.858002,United States,
CIF,Chifeng Yulong Airport,42.154861,118.834618,China,
CUU,Chihuahua International Airport,28.702869,-105.963997,Mexico,
CDS,Childress Municipal Airport,34.433781,-100.287003,United States,
YCW,Chilliwack Airport,49.152771,-121.938004,Canada,
VPY,Chimoio Airport,-19.133333,33.483334,Mozambique,
CCA,Chimore Airport,-16.98975,-65.141502,Bolivia,
CCL,Chinchilla Airport,-26.775,150.617004,Australia,
CNO,Chino Airport,33.974701,-117.637001,United States,
JKH,Chios Island National Airport,38.34317,26.14057,Greece,
KIV,Chisinau International Airport,46.927738,28.930969,Moldova,
HTA,Chita Kadala Airport,52.02631,113.305496,Russia,
CJL,Chitral Airport,35.886112,71.794441,Pakistan,
CTD,Chitre Alonso Valderrama Airport,7.98784,-80.409698,Panama,
CGP,Chittagong Shah Amanat International Airport,22.249611,91.813278,Bangladesh,
JUH,Chizhou Jiuhuashan Airport,30.740278,117.686668,China,
CFK,Chlef International Airport,36.212223,1.331667,Algeria,
CKH,Chokurdakh Airport,70.6231,147.901993,Russia,
CET,Cholet Le Pontreau Airport,47.081902,-0.87721,France,
CKG,Chongqing Jiangbei International Airport,29.71921,106.641602,China,
CHC,Christchurch International Airport,-43.489399,172.534393,New Zealand,
CKW,Christmas Creek Mine Airport,-22.355556,119.652222,Australia,
XCH,Christmas Island Airport,-10.450556,105.690277,Australia,
VCL,Chu Lai International Airport,15.4033,108.706001,Vietnam,
CHU,Chuathbaluk Airport,61.583435,-159.238815,United States,
CCZ,Chub Cay International Airport,25.417101,-77.880798,Bahamas,
NER,Chulman Airport,56.913334,124.911667,Russia,
CJM,Chumphon Airport,10.71,99.360001,Thailand,
YYQ,Churchill Airport,58.739159,-94.065002,Canada,
ZUM,Churchill Falls Airport,53.562778,-64.109169,Canada,
TKK,Chuuk International Airport,7.461893,151.843002,Micronesia,
GGH,Cianorte Airport,-23.691668,-52.642223,Brazil,
CFG,Cienfuegos Jaime Gonzalez Airport,22.15,-80.414101,Cuba,
LUK,Cincinnati Municipal Lunken Airport,39.103329,-84.418602,United States,
CVG,Cincinnati Northern Kentucky International Airport,39.048828,-84.667801,United States,
LDY,City of Derry Airport,55.04277,-7.16111,United Kingdom,
CBL,Ciudad Bolivar Tomas de Heres Airport,8.121898,-63.5373,Venezuela,
CUA,Ciudad Constitucion Airport,25.053801,-111.614998,Mexico,
CME,Ciudad del Carmen International Airport,18.65373,-91.799004,Mexico,
AGT,Ciudad del Este Guarani International Airport,-25.455278,-54.843334,Paraguay,
CJS,Ciudad Juarez International Airport,31.636129,-106.428001,Mexico,
CEN,Ciudad Obregon International Airport,27.39263,-109.833,Mexico,
CQM,Ciudad Real Central Airport,38.85638,-3.97,Spain,
CVM,Ciudad Victoria International Airport,23.703329,-98.956398,Mexico,
GBZ,Claris Great Barrier Aerodrome,-36.241402,175.472,New Zealand,
CLP,Clarks Point Airport,58.833698,-158.529007,United States,
CKB,Clarksburg North Central West Virginia Airport,39.295555,-80.229446,United States,
CKM,Clarksdale Fletcher Field Airport,34.299702,-90.512299,United States,
CKV,Clarksville Montgomery County Regional Airport,36.621899,-87.415001,United States,
CEU,Clemson Oconee County Regional Airport,34.671902,-82.886497,United States,
CFE,Clermont-Ferrand Auvergne Airport,45.785831,3.1625,France,
BKL,Cleveland Burke Lakefront Airport,41.516945,-81.683334,United States,
CGF,Cleveland Cuyahoga County Airport,41.565182,-81.488052,United States,
CLE,Cleveland Hopkins International Airport,41.410252,-81.853897,United States,
QTN,Cleveland Municipal Airport,33.761425,-90.757881,United States,
CNJ,Cloncurry Airport,-20.668905,140.508514,Australia,
KFE,Cloudbreak Fortescue Dave Forrest Airport,-22.292,119.437225,Australia,
CVN,Clovis Municipal Airport,34.427223,-103.078888,United States,
CLJ,Cluj-Napoca International Airport,46.785091,23.68611,Romania,
YCY,Clyde River Airport,70.486107,-68.516602,Canada,
CIZ,Coari Airport,-4.1341,-63.134789,Brazil,
CTH,Coatesville Chester County Area Airport,39.979,-75.865501,United States,
CAZ,Cobar Airport,-31.530001,145.789993,Australia,
CIJ,Cobija Capitan Anibal Arab Airport,-11.0404,-68.782898,Bolivia,
CBB,Cochabamba Jorge Wilstermann International Airport,-17.421,-66.177101,Bolivia,
COK,Cochin International Airport,10.15199,76.401901,India,
CNC,Coconut Island Airport,-10.05,143.070007,Australia,
CCK,Cocos Islands Airport,-12.188611,96.830559,Cocos (Keeling) Islands,
COD,Cody Yellowstone Regional Airport,44.52,-109.019997,United States,
CUQ,Coen Airport,-13.763889,143.113327,Australia,
COE,Coeur d'Alene Airport,47.773605,-116.824165,United States,
CFS,Coffs Harbour Airport,-30.320499,153.116302,Australia,
CNG,Cognac Chateaubernard Air Base,45.657669,-0.314753,France,
CJB,Coimbatore International Airport,11.03003,77.043381,India,
CBP,Coimbra Airport,40.1572,-8.47,Portugal,
CBK,Colby Municipal Airport,39.42614,-101.050301,United States,
CDB,Cold Bay Airport,55.206059,-162.725006,United States,
CXF,Coldfoot Airport,67.252197,-150.203995,United States,
CLQ,Colima Airport,19.27701,-103.577003,Mexico,
COL,Coll Airport,56.601898,-6.61778,United Kingdom,
CRB,Collarenebri Airport,-29.5217,148.582001,Australia,
CGS,College Park Airport,38.980598,-76.922302,United States,
CLL,College Station Easterwood Airport,30.588579,-96.3638,United States,
YKC,Collins Bay Airport,58.236099,-103.678001,Canada,
CMR,Colmar Houssen Airport,48.110352,7.359147,France,
CGN,Cologne Bonn Airport,50.866001,7.143,Germany,
CMB,Colombo Bandaranaike International Airport,7.181139,79.883789,Sri Lanka,
RML,Colombo Ratmalana Airport,6.821994,79.8862,Sri Lanka,
ONX,Colon Enrique Adolfo Jimenez Airport,9.356639,-79.867401,Panama,
CSA,Colonsay Airport,56.057499,-6.24306,United Kingdom,
COS,Colorado Springs Airport,38.805801,-104.699997,United States,
QTL,Colorado Springs Meadow Lake Airport,38.94595,-104.571159,United States,
CUB,Columbia Jim Hamilton Owens Airport,33.970501,-80.995201,United States,
MRC,Columbia Maury County Airport,35.553375,-87.177437,United States,
CAE,Columbia Metropolitan Airport,33.938831,-81.119499,United States,
COU,Columbia Regional Airport,38.818089,-92.219597,United States,
CMH,Columbus John Glenn International Airport,39.997971,-82.8918,United States,
UBS,Columbus Lowndes County Airport,33.46452,-88.380753,United States,
CSG,Columbus Metropolitan Airport,32.516331,-84.938797,United States,
CLU,Columbus Municipal Airport,39.261902,-85.896301,United States,
OLU,Columbus Municipal Airport,41.447224,-97.341667,United States,
OSU,Columbus Ohio State University Airport,40.079723,-83.073059,United States,
LCK,Columbus Rickenbacker International Airport,39.813782,-82.927803,United States,
XPL,Comayagua Palmerola International Airport,14.3824,-87.621201,Honduras,
CIY,Comiso Airport,36.990002,14.6,Italy,
CRD,Comodoro Rivadavia International Airport,-45.785301,-67.4655,Argentina,
YQQ,Comox Valley Airport,49.710831,-124.886002,Canada,
CPM,Compton Woodley Airport,33.889999,-118.244003,United States,
VCS,Con Dao Airport,8.7325,106.628891,Vietnam,
CKY,Conakry International Airport,9.576889,-13.6119,Guinea,
CCP,Concepcion Carriel Sur International Airport,-36.772598,-73.063103,Chile,
CCR,Concord Buchanan Field Airport,37.988888,-122.055557,United States,
CON,Concord Municipal Airport,43.202702,-71.502296,United States,
USA,Concord Regional Airport,35.385139,-80.711189,United States,
CFO,Confresa Airport,-10.6344,-51.563599,Brazil,
TZN,Congo Town South Andros Airport,24.158367,-77.588799,Bahamas,
CXO,Conroe Lone Star Executive Airport,30.35236,-95.414497,United States,
CND,Constanta International Airport,44.362221,28.488331,Romania,
CZL,Constantine Mohamed Boudiaf International Airport,36.27602,6.620386,Algeria,
CPD,Coober Pedy Airport,-29.039942,134.720154,Australia,
CTN,Cooktown Airport,-15.443333,145.183334,Australia,
OOM,Cooma Snowy Mountains Airport,-36.299999,148.970001,Australia,
CJF,Coondewanna Airport,-22.965,118.809998,Australia,
CPH,Copenhagen Airport,55.616959,12.645637,Denmark,
QEC,Copenhagen Sea Airport,55.691055,12.600377,Denmark,
CPO,Copiapo Desierto de Atacama Airport,-27.261248,-70.779221,Chile,
YZS,Coral Harbour Airport,64.193329,-83.359398,Canada,
ODB,Cordoba Airport,37.841999,-4.84887,Spain,
COR,Cordoba International Airport,-31.323601,-64.207901,Argentina,
CDV,Cordova Mudhole Smith Airport,60.491772,-145.477005,United States,
CFU,Corfu International Airport,39.60194,19.911659,Greece,
ORK,Cork Airport,51.841381,-8.49111,Ireland,
CKO,Cornelio Procopio Airport,-23.1525,-50.602501,Brazil,
CZE,Coro Jose Leonardo Chirinos Airport,11.41486,-69.681602,Venezuela,
CWW,Corowa Airport,-35.994701,146.356995,Australia,
CZH,Corozal Airport,18.382221,-88.410835,Belize,
CZU,Corozal Las Brujas Airport,9.333333,-75.283302,Colombia,
CRP,Corpus Christi International Airport,27.770361,-97.501198,United States,
EEA,Correia Pinto Planalto Serrano Regional Airport,-27.634167,-50.358334,Brazil,
CNQ,Corrientes International Airport,-27.445499,-58.761799,Argentina,
CRS,Corsicana Municipal Airport,32.027225,-96.39785,United States,
CEZ,Cortez Municipal Airport,37.302776,-108.62722,United States,
CMG,Corumba International Airport,-19.0119,-57.673,Brazil,
CVO,Corvallis Municipal Airport,44.501186,-123.285698,United States,
CVU,Corvo Airport,39.671379,-31.1166,Portugal,
CBO,Cotabato Awang Airport,7.165242,124.209602,Philippines,
COO,Cotonou Cadjehoun Airport,6.357228,2.384353,Benin,
COT,Cotulla La Salle County Airport,28.45669,-99.2183,United States,
CBF,Council Bluffs Municipal Airport,41.259201,-95.760597,United States,
CVF,Courchevel Altiport,45.39666,6.633611,France,
CVT,Coventry Airport,52.36972,-1.47972,United Kingdom,
CXB,Cox's Bazar Airport,21.45219,91.963882,Bangladesh,
CZM,Cozumel International Airport,20.5224,-86.925598,Mexico,
CIG,Craig Moffat Airport,40.495201,-107.522003,United States,
CRA,Craiova International Airport,44.31813,23.888611,Romania,
YXC,Cranbrook Canadian Rockies International Airport,49.612221,-115.780998,Canada,
QKT,Cranfield Airport,52.072224,-0.616667,United Kingdom,
QTJ,Crawfordsville Regional Airport,39.974781,-86.92086,United States,
CSF,Creil Air Base,49.253609,2.519167,France,
CEC,Crescent City Del Norte County Airport,41.779999,-124.235832,United States,
CEW,Crestview Bob Sikes Airport,30.77883,-86.522102,United States,
CCM,Criciuma Diomicio Freitas Airport,-28.725834,-49.424721,Brazil,
CRI,Crooked Island Colonel Hill Airport,22.75,-74.150002,Bahamas,
CKN,Crookston Municipal Airport,47.841702,-96.621597,United States,
CTY,Cross City Airport,29.6355,-83.104797,United States,
YCR,Cross Lake Airport,54.61306,-97.751442,Canada,
CSV,Crossville Memorial Whitson Field Airport,35.951302,-85.084999,United States,
CRV,Crotone Airport,38.997219,17.08016,Italy,
CZS,Cruzeiro do Sul International Airport,-7.5999,-72.769402,Brazil,
CUC,Cucuta Camilo Daza International Airport,7.931389,-72.514099,Colombia,
CUE,Cuenca Mariscal Lamar International Airport,-2.88946,-78.984299,Ecuador,
CVJ,Cuernavaca General Mariano Matamoros Airport,18.834761,-99.261299,Mexico,
CGB,Cuiaba Marechal Rondon International Airport,-15.6529,-56.116699,Brazil,
CUL,Culiacan International Airport,24.76454,-107.473999,Mexico,
CUM,Cumana Antonio Jose de Sucre Airport,10.45033,-64.130402,Venezuela,
CUF,Cuneo Levaldigi Airport,44.547009,7.623217,Italy,
CMA,Cunnamulla Airport,-28.031389,145.616104,Australia,
CWB,Curitiba Afonso Pena International Airport,-25.5284,-49.175701,Brazil,
BFH,Curitiba Bacacheri Airport,-25.4025,-49.233891,Brazil,
DCN,Curtin Airport,-17.580511,123.828598,Australia,
CUZ,Cusco Alejandro Velasco Astete International Airport,-13.5357,-71.938698,Peru,
CTB,Cut Bank Municipal Airport,48.608349,-112.375999,United States,
FCN,Cuxhaven Nordholz Airport,53.7677,8.6585,Germany,
CYU,Cuyo Airport,10.8581,121.069,Philippines,
CZW,Czestochowa Rudniki Airport,50.884998,19.2047,Poland,
DLI,Da Lat Lien Khuong Airport,11.75056,108.373611,Vietnam,
DAD,Da Nang International Airport,16.043909,108.199303,Vietnam,
TAE,Daegu International Airport,35.8941,128.658798,South Korea,
DSS,Dakar Blaise Diagne International Airport,14.671111,-17.066944,Senegal,
DKR,Dakar International Airport,14.7397,-17.4902,Senegal,
VIL,Dakhla Airport,23.713333,-15.935,Morocco,
DLM,Dalaman Airport,36.713051,28.7925,Turkey,
DBY,Dalby Airport,-27.1553,151.266998,Australia,
DHT,Dalhart Municipal Airport,36.022579,-102.546997,United States,
DLU,Dali Airport,25.649401,100.319,China,
DLC,Dalian Zhoushuizi International Airport,38.96566,121.538597,China,
ADS,Dallas Addison Airport,32.959999,-96.830002,United States,
RBD,Dallas Executive Airport,32.680832,-96.868332,United States,
DFW,Dallas Fort Worth International Airport,32.89682,-97.037903,United States,
DAL,Dallas Love Field Airport,32.847111,-96.8517,United States,
DNN,Dalton Municipal Airport,34.723057,-84.870277,United States,
DAM,Damascus International Airport,33.410629,36.514259,Syria,
DMM,Dammam King Fahd International Airport,26.471161,49.79789,Saudi Arabia,
QED,Damme Airport,52.487595,8.185209,Germany,
DXR,Danbury Municipal Airport,41.371666,-73.482224,United States,
DDG,Dandong Langtou Airport,40.025551,124.286598,China,
DGA,Dangriga Airport,16.982389,-88.231003,Belize,
DAN,Danville Regional Airport,36.572899,-79.336098,United States,
DNV,Danville Vermilion Regional Airport,40.197224,-87.596947,United States,
DCY,Daocheng Yading Airport,29.323055,100.053329,China,
DQA,Daqing Sartu Airport,46.748684,125.139725,China,
DAR,Dar-es-Salaam Julius Nyerere International Airport,-6.87811,39.202621,Tanzania,
DBR,Darbhanga Airport,26.194721,85.917503,India,
NLF,Darnley Island Airport,-9.58333,143.766998,Australia,
DAU,Daru Airport,-9.08676,143.207993,Papua New Guinea,
DRW,Darwin International Airport,-12.4147,130.876663,Australia,
TAZ,Dasoguz Airport,41.761101,59.826698,Turkmenistan,
DAT,Datong Yungang Airport,40.055538,113.481361,China,
DVO,Davao City Francisco Bangoy International Airport,7.125522,125.645699,Philippines,
DVN,Davenport Municipal Airport,41.610298,-90.588303,United States,
DAV,David Enrique Malek International Airport,8.391003,-82.434898,Panama,
QAD,Davis Plateau Skiway,-68.469635,78.790894,Antarctica,
DWD,Dawadmi Domestic Airport,24.445545,44.1287,Saudi Arabia,
TVY,Dawei Airport,14.1,98.199997,Myanmar (Burma),
YDA,Dawson City Airport,64.043053,-139.127625,Canada,
GDV,Dawson Community Airport,47.13871,-104.806999,United States,
YDQ,Dawson Creek Airport,55.742329,-120.182999,Canada,
DYG,Dayong Zhangjiajie Hehua Airport,29.107121,110.445686,China,
GSM,Dayrestan Qeshm Island Airport,26.757778,55.905277,Iran,
DAY,Dayton International Airport,39.90237,-84.219299,United States,
MGY,Dayton Wright Brothers Airport,39.58889,-84.224998,United States,
DAB,Daytona Beach International Airport,29.185192,-81.060829,United States,
DZH,Dazhou Jinya Airport,31.047243,107.435455,China,
SCC,Deadhorse Airport,70.194748,-148.464996,United States,
LGI,Deadman's Cay Airport,23.17901,-75.093498,Bahamas,
YDL,Dease Lake Airport,58.422218,-130.031998,Canada,
DOL,Deauville Saint Gatien Airport,49.363331,0.16,France,
QPD,Deblin Airport,51.551472,21.891415,Poland,
DEB,Debrecen International Airport,47.488911,21.61533,Hungary,
DEC,Decatur Airport,39.830002,-88.860001,United States,
QTU,Decatur Municipal Airport,33.254257,-97.580498,United States,
DCU,Decatur Pryor Field Regional Airport,34.652699,-86.945396,United States,
YVZ,Deer Lake Airport,52.666668,-94.5,Canada,
YDF,Deer Lake Regional Airport,49.210831,-57.3913,Canada,
DRG,Deering Airport,66.071198,-162.759888,United States,
DED,Dehradun Jolly Grant Airport,30.18968,78.180252,India,
DEX,Dekai Nop Goliat Airport,-4.853996,139.485672,Indonesia,
IAO,Del Carmin Sayak Airport,9.858889,126.013885,Philippines,
DRT,Del Rio International Airport,29.374201,-100.927002,United States,
QAH,Delhi Hindon Airport,28.707708,77.359734,India,
DEL,Delhi Indira Gandhi International Airport,28.5665,77.103081,India,
YWJ,Deline Airport,65.211006,-123.434807,Canada,
HXD,Delingha Airport,37.125,97.268608,China,
ZDY,Delma Island Airport,24.508333,52.335278,United Arab Emirates,
DMN,Deming Municipal Airport,32.262989,-107.721733,United States,
DHR,Den Helder Airport,52.923351,4.780625,Netherlands,
QKD,Denham Airport,51.588451,-0.512884,United Kingdom,
DNZ,Denizli Cardak Airport,37.785561,29.70129,Turkey,
DPS,Denpasar Ngurah Rai International Airport,-8.74816,115.167099,Indonesia,
QQD,Denton Enterprise Airport,33.200832,-97.198059,United States,
APA,Denver Centennial Airport,39.57011,-104.848999,United States,
QQH,Denver Front Range Airport,39.785278,-104.543053,United States,
DEN,Denver International Airport,39.858784,-104.673882,United States,
BJC,Denver Rocky Mountain Metropolitan Airport,39.900002,-105.110001,United States,
DGH,Deoghar Airport,24.446871,86.706619,India,
DPT,Deputatskiy Airport,69.392555,139.89537,Russia,
DEA,Dera Ghazi Khan Airport,29.961,70.485901,Pakistan,
DRB,Derby Airport,-17.370001,123.661003,Australia,
DSM,Des Moines International Airport,41.53397,-93.663002,United States,
DSE,Dessie Kombolcha Airport,11.111111,39.724998,Ethiopia,
DSI,Destin Fort Walton Beach Airport,30.399591,-86.470879,United States,
VPS,Destin Fort Walton Beach International Airport,30.48333,-86.525299,United States,
DET,Detroit Coleman A. Young International Airport,42.409191,-83.009804,United States,
DTL,Detroit Lakes Airport,46.826389,-95.886108,United States,
DTW,Detroit Metropolitan Wayne County Airport,42.21244,-83.353302,United States,
YIP,Detroit Willow Run Airport,42.23772,-83.529999,United States,
DVL,Devils Lake Regional Airport,48.113056,-98.907501,United States,
DPO,Devonport Airport,-41.169724,146.430283,Australia,
DEF,Dezful Airport,32.438828,48.384682,Iran,
DDD,Dhaalu Kudahuvadhoo Airport,2.667222,72.892776,Maldives,
DAC,Dhaka Shahjalal International Airport,23.84333,90.397781,Bangladesh,
DHI,Dhangadhi Airport,28.753332,80.581947,Nepal,
DHM,Dharamsala Gaggal Kangra Airport,32.165001,76.263,India,
DRV,Dharavandhoo Airport,5.15,73.129997,Maldives,
DIB,Dibrugarh Airport,27.48385,95.016922,India,
DIK,Dickinson Theodore Roosevelt Regional Airport,46.797329,-102.801003,United States,
DIN,Dien Bien Phu Airport,21.397499,103.008003,Vietnam,
QCD,Diepholz Air Base,52.585564,8.340962,Germany,
DIJ,Dijon Longvic Airport,47.265831,5.095,France,
DKS,Dikson Airport,73.517807,80.379669,Russia,
DIL,Dili Presidente Nicolau Lobato International Airport,-8.54641,125.524803,Timor-Leste (East Timor),
DLG,Dillingham Airport,59.044659,-158.505005,United States,
DLN,Dillon Airport,45.255402,-112.553001,United States,
DMU,Dimapur Airport,25.879816,93.772865,India,
DNR,Dinard Pleurtuit Saint-Malo Airport,48.587769,-2.08,France,
DPL,Dipolog Airport,8.601389,123.334442,Philippines,
DIR,Dire Dawa International Airport,9.6247,41.854198,Ethiopia,
DIU,Diu Airport,20.716667,70.916664,India,
DIQ,Divinopolis Airport,-20.1807,-44.870899,Brazil,
DIY,Diyarbakir Airport,37.89389,40.201012,Turkey,
DJG,Djanet Inedbirene Airport,24.292761,9.452444,Algeria,
DJE,Djerba Zarzis International Airport,33.875031,10.77546,Tunisia,
JIB,Djibouti Ambouli International Airport,11.54733,43.159481,Djibouti,
DNK,Dnipro Dnipropetrovsk International Airport,48.35722,35.100552,Ukraine,
DOB,Dobo Rar Gwamar Airport,-5.77376,134.209427,Indonesia,
DDC,Dodge City Regional Airport,37.763119,-99.965401,United States,
DOD,Dodoma Airport,-6.17043,35.752571,Tanzania,
DOH,Doha Hamad International Airport,25.272524,51.608604,Qatar,
DIA,Doha International Airport,25.261059,51.565094,Qatar,
DLE,Dole Jura Airport,47.04277,5.435,France,
DOP,Dolpa Airport,28.985701,82.819099,Nepal,
DOM,Dominica Douglas Charles Airport,15.54702,-61.299999,Dominica,
QCO,Donaueschingen Villingen Airport,47.973747,8.52224,Germany,
DSA,Doncaster Sheffield Airport,53.47472,-1.00444,United Kingdom,
CFN,Donegal Airport,55.044189,-8.341,Ireland,
DOK,Donetsk Sergey Prokofiev International Airport,48.073608,37.739719,Ukraine,
VDH,Dong Hoi Airport,17.514999,106.590553,Vietnam,
DOY,Dongying Shengli Airport,37.510277,118.784447,China,
DMD,Doomadgee Airport,-17.940001,138.820007,Australia,
DTM,Dortmund Airport,51.518311,7.612242,Germany,
DHN,Dothan Regional Airport,31.321329,-85.4496,United States,
DLA,Douala International Airport,4.006081,9.719481,Cameroon,
DOU,Dourados Airport,-22.202778,-54.925556,Brazil,
DOV,Dover Air Force Base,39.129501,-75.466003,United States,
DYL,Doylestown Airport,40.333,-75.122299,United States,
DRK,Drake Bay Airport,8.718889,-83.639046,Costa Rica,
DRS,Dresden Airport,51.132759,13.76716,Germany,
YHD,Dryden Regional Airport,49.831661,-92.744102,Canada,
NHD,Dubai Al Minhad Air Base,25.0268,55.366199,United Arab Emirates,
DXB,Dubai International Airport,25.252769,55.364441,United Arab Emirates,
DWC,Dubai World Central International Airport,24.88611,55.172222,United Arab Emirates,
DBO,Dubbo City Airport,-32.216599,148.574707,Australia,
DUB,Dublin Airport,53.421379,-6.27,Ireland,
PSK,Dublin New River Valley Airport,37.137222,-80.678612,United States,
DBN,Dublin W.H. 'Bud' Barron Airport,32.5644,-82.985298,United States,
QIW,Dublin Weston Airport,53.352337,-6.488054,Ireland,
DUJ,DuBois Regional Airport,41.178169,-78.89875,United States,
DBV,Dubrovnik Airport,42.561352,18.26824,Croatia,
DBQ,Dubuque Regional Airport,42.400002,-90.699997,United States,
DLH,Duluth International Airport,46.842079,-92.193604,United States,
DGT,Dumaguete City Sibulan Airport,9.333714,123.3004,Philippines,
DUM,Dumai Pinang Kampai Airport,1.609194,101.433502,Indonesia,
DUC,Duncan Halliburton Airport,34.472221,-97.959724,United States,
DND,Dundee Airport,56.452492,-3.02583,United Kingdom,
DUD,Dunedin International Airport,-45.928001,170.198303,New Zealand,
DNH,Dunhuang Airport,40.16111,94.809158,China,
QKU,Dunkeswell Airport,50.860638,-3.233885,United Kingdom,
DQM,Duqm International Airport,19.499168,57.641865,Oman,
DGO,Durango International Airport,24.124189,-104.528,Mexico,
DRO,Durango La Plata County Airport,37.151508,-107.752998,United States,
DUA,Durant Regional Airport,33.942299,-96.394501,United States,
DUR,Durban King Shaka International Airport,-29.616667,31.108334,South Africa,
RDP,Durgapur Kazi Nazrul Islam Airport,23.621389,87.243332,India,
DYU,Dushanbe International Airport,38.543331,68.824997,Tajikistan,
DUS,Dusseldorf International Airport,51.289452,6.766775,Germany,
MGL,Dusseldorf Monchengladbach Airport,51.23035,6.504494,Germany,
QTD,Dyersburg Regional Airport,35.996822,-89.407188,United States,
DZA,Dzaoudzi Pamandzi International Airport,-12.8066,45.280548,Mayotte,
EAA,Eagle Airport,64.778168,-141.150497,United States,
EGE,Eagle County Regional Airport,39.642551,-106.917,United States,
EGV,Eagle River Airport,45.929169,-89.265831,United States,
YXR,Earlton Timiskaming Airport,47.697742,-79.846527,Canada,
JPX,East Hampton Airport,40.959442,-72.251663,United States,
ELS,East London Airport,-33.0355,27.82593,South Africa,
ESN,Easton Airport,38.802776,-76.06778,United States,
ESD,Eastsound Orcas Island Airport,48.708332,-122.912498,United States,
EAU,Eau Claire Chippewa Valley Regional Airport,44.860001,-91.480003,United States,
QEE,Eberswalde Finow Airport,52.826389,13.701182,Germany,
ECH,Echuca Airport,-36.1572,144.761993,Australia,
EOI,Eday Airport,59.191422,-2.77168,United Kingdom,
EDI,Edinburgh Airport,55.950001,-3.3725,United Kingdom,
YEG,Edmonton International Airport,53.309719,-113.579002,Canada,
EDO,Edremit Balikesir Koca Seyit Airport,39.549999,27.01,Turkey,
EEK,Eek Airport,60.213673,-162.043884,United States,
QCE,Eggenfelden Airport,48.395996,12.721446,Germany,
EGS,Egilsstadir Airport,65.283333,-14.4013,Iceland,
ETM,Eilat Ramon Airport,29.723694,35.011417,Israel,
EIN,Eindhoven Airport,51.45013,5.374528,Netherlands,
ERN,Eirunepe Amaury Feitosa Tomaz Airport,-6.639178,-69.879814,Brazil,
EIB,Eisenach Kindel Airport,50.992779,10.472778,Germany,
YOA,Ekati Airport,64.699448,-110.614441,Canada,
EUN,El Aaiun Hassan Airport,27.151661,-13.2191,Morocco,
DBB,El Alamein International Airport,30.924444,28.46139,Egypt,
EBG,El Bagre Airport,7.59647,-74.808899,Colombia,
FTE,El Calafate International Airport,-50.2803,-72.053101,Argentina,
OCC,El Coca Francisco de Orellana Airport,-0.46288,-76.986801,Ecuador,
ELD,El Dorado South Arkansas Regional Airport,33.22097,-92.813202,United States,
ELF,El Fasher Airport,13.61489,25.32465,Sudan,
VDE,El Hierro Airport,27.81484,-17.886999,Spain,
JAL,El Lencero Jalapa Airport,19.472221,-96.781944,Mexico,
EMT,El Monte San Gabriel Valley Airport,34.085583,-118.035095,United States,
ENI,El Nido Airport,11.2025,119.416115,Philippines,
EBD,El Obeid Airport,13.15321,30.23267,Sudan,
ELU,El Oued Guemar Airport,33.511391,6.776794,Algeria,
EPA,El Palomar Airport,-34.610001,-58.612499,Argentina,
BIF,El Paso Biggs Field Airport,31.849501,-106.379997,United States,
ELP,El Paso International Airport,31.807249,-106.376999,United States,
VIG,El Vigia Juan Pablo Perez Alfonso Airport,8.6333,-71.650002,Venezuela,
EZS,Elazig Airport,38.606918,39.291409,Turkey,
EBA,Elba Marina di Campo Airport,42.760269,10.23944,Italy,
ELC,Elcho Island Airport,-12.019817,135.569794,Australia,
EDL,Eldoret International Airport,0.404458,35.238918,Kenya,
ELI,Elim Airport,64.6147,-162.272003,United States,
ESL,Elista Airport,46.370594,44.332966,Russia,
ECG,Elizabeth City Regional Airport,36.260578,-76.1745,United States,
EKX,Elizabethtown Regional Airport,37.688889,-85.92778,United States,
ELK,Elk City Regional Business Airport,35.430801,-99.394302,United States,
EKI,Elkhart Municipal Airport,41.719398,-86.003197,United States,
EKO,Elko Regional Airport,40.824909,-115.791,United States,
ELN,Ellensburg Bowers Airport,47.033001,-120.530998,United States,
ELM,Elmira Corning Regional Airport,42.16304,-76.895859,United States,
ELY,Ely Airport,39.301945,-114.841942,United States,
EME,Emden Airport,53.391178,7.227408,Germany,
EMD,Emerald Airport,-23.559999,148.169998,Australia,
EMK,Emmonak Airport,62.776943,-164.520828,United States,
ENE,Ende H. Hasan Aroeboesman Airport,-8.84929,121.660599,Indonesia,
NBE,Enfidha Hammamet International Airport,36.091946,10.413889,Tunisia,
WDG,Enid Woodring Regional Airport,36.3792,-97.7911,United States,
QTE,Ennis Big Sky Airport,45.274384,-111.648827,United States,
ENK,Enniskillen St Angelo Airport,54.39888,-7.65166,United Kingdom,
ENF,Enontekio Airport,68.362579,23.42432,Finland,
ENS,Enschede Twente Airport,52.27441,6.885969,Netherlands,
ESE,Ensenada Airport,31.79528,-116.601997,Mexico,
ENH,Enshi Xujiaping Airport,30.320278,109.485001,China,
EBB,Entebbe International Airport,0.042386,32.443501,Uganda,
ETS,Enterprise Municipal Airport,31.2997,-85.899902,United States,
ENU,Enugu Akanu Ibiam International Airport,6.474272,7.561961,Nigeria,
EPL,Epinal Mirecourt Airport,48.325001,6.066742,France,
EBL,Erbil International Airport,36.240482,43.946671,Iraq,
ECN,Ercan International Airport,35.155071,33.502117,Turkey,
ERM,Erechim Airport,-27.663158,-52.272152,Brazil,
ERL,Erenhot Saiwusu International Airport,43.422501,112.096664,China,
ERF,Erfurt Weimar Airport,50.979809,10.9581,Germany,
ERI,Erie International Airport,42.082001,-80.176201,United States,
QQE,Erie Municipal Airport,40.010277,-105.048058,United States,
ERH,Errachidia Moulay Ali Cherif Airport,31.9475,-4.39833,Morocco,
ERC,Erzincan Airport,39.710201,39.527,Turkey,
ERZ,Erzurum Airport,39.956501,41.170158,Turkey,
EBJ,Esbjerg Airport,55.52594,8.553403,Denmark,
ESC,Escanaba Delta County Airport,45.72266,-87.093697,United States,
EKT,Eskilstuna Airport,59.351101,16.708401,Sweden,
AOE,Eskisehir Airport,39.811401,30.527,Turkey,
ESM,Esmeraldas Carlos Concha Torres International Airport,0.978519,-79.626602,Ecuador,
SID,Espargos Amilcar Cabral International Airport,16.741381,-22.9494,Cape Verde,
EPR,Esperance Airport,-33.68,121.82,Australia,
EQS,Esquel Airport,-42.907902,-71.139397,Argentina,
ESU,Essaouira Airport,31.397499,-9.681667,Morocco,
ESS,Essen Mulheim Airport,51.402328,6.937333,Germany,
EUA,Eua Kaufana Airport,-21.378,-174.957993,Tonga,
EUG,Eugene Airport,44.12458,-123.210999,United States,
YEU,Eureka Airport,79.99472,-85.814102,Canada,
EKA,Eureka Murray Field Airport,40.805,-124.114998,United States,
EVV,Evansville Regional Airport,38.036991,-87.532303,United States,
EVM,Eveleth Virginia Municipal Airport,47.426388,-92.495834,United States,
EVE,Evenes Harstad Narvik Airport,68.491302,16.678101,Norway,
PAE,Everett Paine Field,47.9077,-122.282799,United States,
QPV,Evora Airport,38.533463,-7.889648,Portugal,
EVX,Evreux Fauville Air Base,49.028702,1.21986,France,
EXT,Exeter Airport,50.73444,-3.41388,United Kingdom,
EHU,Ezhou Huahu Airport,30.341,115.039101,China,
VDB,Fagernes Airport,61.015549,9.288056,Norway,
FIE,Fair Isle Airport,59.530926,-1.608972,United Kingdom,
FAI,Fairbanks International Airport,64.815109,-147.856003,United States,
SUU,Fairfield Travis Air Force Base,38.262661,-121.927002,United States,
FFD,Fairford Airport,51.683544,-1.790277,United Kingdom,
QTQ,Fairhope H. L. Sonny Callahan Airport,30.460573,-87.876991,United States,
FRM,Fairmont Municipal Airport,43.643902,-94.415604,United States,
LYP,Faisalabad International Airport,31.365009,72.994843,Pakistan,
FAV,Fakarava Airport,-16.0541,-145.656006,French Polynesia,
FKQ,Fakfak Torea Airport,-2.92019,132.266998,Indonesia,
QTK,Falfurrias Brooks County Airport,27.204731,-98.122398,United States,
INL,Falls International Airport,48.565578,-93.4021,United States,
FAH,Farah Airport,32.365601,62.165138,Afghanistan,
FAR,Fargo Hector International Airport,46.92065,-96.815697,United States,
FBL,Faribault Municipal Airport,44.327831,-93.31144,United States,
FRG,Farmingdale Republic Airport,40.728889,-73.41333,United States,
FMN,Farmington Four Corners Regional Airport,36.741249,-108.228996,United States,
FAM,Farmington Regional Airport,37.761101,-90.428596,United States,
FAB,Farnborough Airport,51.275829,-0.77633,United Kingdom,
FAO,Faro Airport,37.01442,-7.96591,Portugal,
FYV,Fayetteville Drake Field Airport,36.005089,-94.169998,United States,
FYM,Fayetteville Municipal Airport,35.0597,-86.564003,United States,
POB,Fayetteville Pope Field,35.170834,-79.014442,United States,
FAY,Fayetteville Regional Airport,34.990002,-78.879997,United States,
FEC,Feira de Santana Airport,-12.2003,-38.906799,Brazil,
FEG,Fergana International Airport,40.358761,71.745018,Uzbekistan,
FFM,Fergus Falls Municipal Airport,46.285618,-96.151375,United States,
FEN,Fernando de Noronha Airport,-3.85492,-32.423302,Brazil,
QEG,Fertoszentmiklos Meidl Airport,47.582779,16.845278,Hungary,
FEZ,Fes Saiss Airport,33.927261,-4.97795,Morocco,
FSC,Figari Sud-Corse Airport,41.50222,9.096667,France,
FDY,Findlay Airport,41.011944,-83.66861,United States,
QTI,Fitchburg Municipal Airport,42.553902,-71.759102,United States,
FIZ,Fitzroy Crossing Airport,-18.1819,125.558998,Australia,
FLG,Flagstaff Pulliam Airport,35.140308,-111.668999,United States,
FLF,Flensburg Schaferhaus Airport,54.773335,9.378889,Germany,
YFO,Flin Flon Airport,54.678051,-101.681,Canada,
FLS,Flinders Island Airport,-40.095001,147.996674,Australia,
FNT,Flint Bishop International Airport,42.96542,-83.743599,United States,
FLR,Florence Peretola Airport,43.809952,11.2051,Italy,
FLO,Florence Regional Airport,34.18536,-79.723801,United States,
FLA,Florencia Gustavo Artunduaga Paredes Airport,1.588989,-75.563797,Colombia,
FLW,Flores Airport,39.455269,-31.1313,Portugal,
FRS,Flores Mundo Maya International Airport,16.913811,-89.866302,Guatemala,
FLN,Florianopolis Hercilio Luz International Airport,-27.670401,-48.5471,Brazil,
FRO,Floro Airport,61.583611,5.024722,Norway,
FOG,Foggia Gino Lisa Airport,41.432911,15.53502,Italy,
ZFD,Fond Du Lac Airport,59.334209,-107.18119,Canada,
FLD,Fond du Lac County Airport,43.771198,-88.488403,United States,
FDE,Forde Airport,61.391109,5.756944,Norway,
FRL,Forli Airport,44.194752,12.07009,Italy,
FMA,Formosa International Airport,-26.2127,-58.2281,Argentina,
YFA,Fort Albany Airport,52.241669,-81.591667,Canada,
YPY,Fort Chipewyan Airport,58.76722,-111.116997,Canada,
FNL,Fort Collins Northern Colorado Regional Airport,40.45182,-105.011002,United States,
FOD,Fort Dodge Regional Airport,42.551189,-94.191803,United States,
YAG,Fort Frances Municipal Airport,48.650002,-93.43,Canada,
YGH,Fort Good Hope Airport,66.240555,-128.645752,Canada,
YFH,Fort Hope Airport,51.559345,-87.897957,Canada,
FHU,Fort Huachuca Sierra Vista Municipal Airport,31.58847,-110.344002,United States,
FXE,Fort Lauderdale Executive Airport,26.197269,-80.1707,United States,
FLL,Fort Lauderdale Hollywood International Airport,26.07258,-80.152702,United States,
JHL,Fort MacKay Albian Aerodrome,57.2239,-111.418999,Canada,
YFI,Fort MacKay Firebag Aerodrome,57.275833,-110.976669,Canada,
HZP,Fort MacKay Horizon Airport,57.381668,-111.701111,Canada,
YMM,Fort McMurray Airport,56.653332,-111.221001,Canada,
FME,Fort Meade Tipton Airport,39.088482,-76.753716,United States,
FMY,Fort Myers Page Field Airport,26.586611,-81.863197,United States,
YYE,Fort Nelson Airport,58.83638,-122.596001,Canada,
FPR,Fort Pierce Treasure Coast International Airport,27.4951,-80.368301,United States,
YER,Fort Severn Airport,56.0177,-87.677505,Canada,
YFS,Fort Simpson Airport,61.760151,-121.236511,Canada,
YSM,Fort Smith Airport,60.020271,-111.960999,Canada,
FSM,Fort Smith Regional Airport,35.336578,-94.367401,United States,
YXJ,Fort St. John Airport,56.238049,-120.739998,Canada,
FST,Fort Stockton Pecos County Airport,30.914251,-102.917603,United States,
FWA,Fort Wayne International Airport,40.97847,-85.195099,United States,
AFW,Fort Worth Alliance Airport,32.98,-97.309998,United States,
FTW,Fort Worth Meacham International Airport,32.819771,-97.362396,United States,
FYU,Fort Yukon Airport,66.571487,-145.25,United States,
FOR,Fortaleza Pinto Martins International Airport,-3.77628,-38.532501,Brazil,
QTO,Fortuna Rohnerville Airport,40.553776,-124.132385,United States,
FUO,Foshan Shadi Airport,23.0825,113.070831,China,
IGU,Foz do Iguacu International Airport,-25.5961,-54.487202,Brazil,
FRC,Franca Airport,-20.592199,-47.3829,Brazil,
FBE,Francisco Beltrao Airport,-26.059431,-53.063942,Brazil,
FRW,Francistown Phillip Gaonwe Matante International Airport,-21.1591,27.468296,Botswana,
FFT,Frankfort Capital City Airport,38.18,-84.900002,United States,
FRA,Frankfurt Airport,50.037796,8.555783,Germany,
QEF,Frankfurt Egelsbach Airport,49.961109,8.643611,Germany,
HHN,Frankfurt Hahn Airport,49.948669,7.263892,Germany,
FKL,Franklin Venango Regional Airport,41.379166,-79.859718,United States,
FDK,Frederick Municipal Airport,39.417599,-77.374298,United States,
FDR,Frederick Regional Airport,34.352001,-98.983902,United States,
YFC,Fredericton International Airport,45.868881,-66.537201,Canada,
FPO,Freeport Grand Bahama International Airport,26.55868,-78.695503,Bahamas,
FNA,Freetown Lungi International Airport,8.616444,-13.1954,Sierra Leone,
QCF,Freiburg Airport,48.022652,7.832583,Germany,
FET,Fremont Municipal Airport,41.4491,-96.520203,United States,
FCH,Fresno Chandler Executive Airport,36.73214,-119.820335,United States,
FAT,Fresno Yosemite International Airport,36.776192,-119.718002,United States,
QYE,Fribourg Ecuvillens Airport,46.755207,7.075892,Switzerland,
FRD,Friday Harbor Airport,48.524807,-123.026497,United States,
FDH,Friedrichshafen Airport,47.67131,9.511486,Germany,
FRY,Fryeburg Eastern Slopes Regional Airport,43.9911,-70.947899,United States,
FUE,Fuerteventura Airport,28.452709,-13.8637,Spain,
FJR,Fujairah International Airport,25.112221,56.323959,United Arab Emirates,
FUJ,Fukue Airport,32.66626,128.832794,Japan,
FUK,Fukuoka Airport,33.585941,130.450607,Japan,
FKS,Fukushima Airport,37.227428,140.430603,Japan,
FUL,Fullerton Municipal Airport,33.872013,-117.979782,United States,
FND,Funadhoo Airport,6.161111,73.287224,Maldives,
FUN,Funafuti International Airport,-8.525,179.196304,Tuvalu,
FNC,Funchal Cristiano Ronaldo Airport,32.69788,-16.774401,Portugal,
FTA,Futuna Airport,-19.5163,170.231903,Vanuatu,
FUT,Futuna Island Pointe Vele Airport,-14.3113,-178.065994,Wallis And Futuna,
FVM,Fuvahmulah Airport,-0.309444,73.432503,Maldives,
FUG,Fuyang Xiguan Airport,32.882156,115.734367,China,
FYJ,Fuyuan Dongji Airport,48.199493,134.36644,China,
FYN,Fuyun Koktokay Airport,46.804222,89.511978,China,
FOC,Fuzhou Changle International Airport,25.934599,119.663368,China,
FZL,Fuzuli International Airport,39.594398,47.196602,Azerbaijan,
GAE,Gabes Matmata International Airport,33.734165,9.921366,Tunisia,
GBE,Gaborone Sir Seretse Khama International Airport,-24.555201,25.9182,Botswana,
GCH,Gachsaran Airport,30.336399,50.831657,Iran,
GAD,Gadsden Northeast Alabama Regional Airport,33.97361,-86.087219,United States,
GVL,Gainesville Lee Gilmer Memorial Airport,34.273369,-83.831322,United States,
GLE,Gainesville Municipal Airport,33.651402,-97.196999,United States,
GNV,Gainesville Regional Airport,29.69005,-82.271698,United States,
GAI,Gaithersburg Montgomery County Airpark,39.168331,-77.166,United States,
GLK,Galcaio Airport,6.780833,47.45472,Somalia,
GAL,Galena Airport,64.73616,-156.936996,United States,
GEV,Gallivare Lapland Airport,67.132401,20.814631,Sweden,
GUP,Gallup Municipal Airport,35.511112,-108.786667,United States,
GLS,Galveston Scholes International Airport,29.265329,-94.860397,United States,
GMB,Gambela Airport,8.128764,34.563129,Ethiopia,
GAM,Gambell Airport,63.766762,-171.731995,United States,
GAN,Gan International Airport,-0.693333,73.155556,Maldives,
YQX,Gander International Airport,48.936939,-54.568001,Canada,
QCQ,Ganderkesee Airport,53.036091,8.505381,Germany,
GNJ,Ganja International Airport,40.737778,46.317501,Azerbaijan,
KOW,Ganzhou Huangjin Airport,25.851667,114.776665,China,
GAQ,Gao International Airport,16.24843,-0.00545,Mali,
GAT,Gap Tallard Airport,44.455002,6.03778,France,
QGP,Garanhuns Airport,-8.83428,-36.4716,Brazil,
GCK,Garden City Regional Airport,37.927521,-100.723999,United States,
RIL,Garfield County Regional Airport,39.526268,-107.725487,United States,
GAS,Garissa Airport,-0.4635,39.648289,Kenya,
GOU,Garoua International Airport,9.335892,13.3701,Cameroon,
GGR,Garowe Airport,8.460833,48.572224,Somalia,
GZG,Garze Gesar Airport,31.7575,99.554169,China,
MRQ,Gasan Marinduque Airport,13.361,121.825996,Philippines,
YGP,Gaspe Airport,48.775269,-64.4786,Canada,
YND,Gatineau Ottawa Executive Airport,45.52169,-75.563499,Canada,
GVX,Gavle Airport,60.5933,16.951401,Sweden,
GAY,Gaya Airport,24.744301,84.951172,India,
GLR,Gaylord Regional Airport,45.009998,-84.699997,United States,
GZT,Gaziantep Oguzeli Airport,36.947182,37.47868,Turkey,
GZP,Gazipasa Airport,36.299,32.299999,Turkey,
GDN,Gdansk Lech Walesa Airport,54.37756,18.466221,Poland,
QPO,Gdynia Kosakowo Airport,54.579674,18.517136,Poland,
GKE,Geilenkirchen Air Base,50.960865,6.042386,Germany,
GDZ,Gelendzhik Airport,44.566666,38.016666,Russia,
GLU,Gelephu Airport,26.88348,90.465965,Bhutan,
EGN,Geneina Airport,13.48166,22.46722,Sudan,
GES,General Santos International Airport,6.058056,125.096107,Philippines,
GVA,Geneva International Airport,46.23806,6.10895,Switzerland,
GOA,Genoa Cristoforo Colombo Airport,44.41333,8.8375,Italy,
GRJ,George Airport,-34.005501,22.37888,South Africa,
GGT,George Town Exuma International Airport,23.56263,-75.877899,Bahamas,
GCM,George Town Owen Roberts International Airport,19.29277,-81.357697,Cayman Islands,
GEO,Georgetown Cheddi Jagan International Airport,6.498553,-58.254101,Guyana,
GGE,Georgetown County Airport,33.311699,-79.319603,United States,
GED,Georgetown Delaware Coastal Airport,38.688332,-75.357498,United States,
OGL,Georgetown Eugene F. Correira International Airport,6.807733,-58.105209,Guyana,
QTG,Georgetown Municipal Airport,30.677477,-97.678467,United States,
GET,Geraldton Airport,-28.796078,114.702049,Australia,
YGQ,Geraldton Greenstone Regional Airport,49.778332,-86.9394,Canada,
GHA,Ghardaia Noumerate Airport,32.384102,3.794114,Algeria,
GHT,Ghat Airport,25.145559,10.14264,Libya,
GIB,Gibraltar Airport,36.151211,-5.34966,Gibraltar,
GHF,Giebelstadt Airport,49.648056,9.966389,Germany,
GIL,Gilgit Airport,35.918781,74.333641,Pakistan,
YGX,Gillam Airport,56.358051,-94.708,Canada,
GCC,Gillette Campbell County Airport,44.346355,-105.532684,United States,
YGB,Gillies Bay Airport,49.700001,-124.533333,Canada,
GBW,Ginbata Airport,-22.5816,120.036255,Australia,
GRO,Girona Costa Brava Airport,41.900959,2.760547,Spain,
GIS,Gisborne Airport,-38.6633,177.978302,New Zealand,
SPX,Giza Sphinx International Airport,30.109722,30.894444,Egypt,
GZO,Gizo Nusatupe Airport,-8.09777,156.863602,Solomon Islands,
YHK,Gjoa Haven Airport,68.635551,-95.849701,Canada,
GJR,Gjogur Airport,65.9953,-21.3269,Iceland,
GLT,Gladstone Airport,-23.871469,151.223511,Australia,
GGW,Glasgow Airport,48.212776,-106.615555,United States,
GLA,Glasgow International Airport,55.871941,-4.43305,United Kingdom,
PIK,Glasgow Prestwick Airport,55.509441,-4.58666,United Kingdom,
GFL,Glens Falls Floyd Bennett Memorial Airport,43.341202,-73.610298,United States,
GLO,Gloucester Gloucestershire Airport,51.894161,-2.16722,United Kingdom,
GOX,Goa International Airport,15.744402,73.860626,India,
GOI,Goa International Airport,15.38083,73.831421,India,
GOB,Goba Robe Airport,7.119172,40.045189,Ethiopia,
GDE,Gode Airport,5.935128,43.578568,Ethiopia,
YGO,Gods Lake Narrows Airport,54.557701,-94.491173,Canada,
ZGI,Gods River Airport,54.839142,-94.079651,Canada,
GYN,Goiania Santa Genoveva Airport,-16.632,-49.2206,Brazil,
OOL,Gold Coast Airport,-28.156067,153.502426,Australia,
GTR,Golden Triangle Regional Airport,33.450329,-88.591301,United States,
GLF,Golfito Airport,8.653775,-83.180496,Costa Rica,
GOQ,Golmud Airport,36.4006,94.786102,China,
GMQ,Golog Maqin Airport,34.415833,100.311111,China,
GLV,Golovin Airport,64.550499,-163.007004,United States,
GOM,Goma International Airport,-1.67081,29.238461,Democratic Republic Of The Congo,
GMO,Gombe Lawanti International Airport,10.298056,10.898889,Nigeria,
GME,Gomel Airport,52.52702,31.016689,Belarus,
GDQ,Gondar Airport,12.5199,37.43404,Ethiopia,
GDB,Gondia Airport,21.524944,80.288483,India,
GLD,Goodland Municipal Airport,39.370277,-101.699448,United States,
YYR,Goose Bay Airport,53.31916,-60.4258,Canada,
GOP,Gorakhpur Airport,26.739445,83.449448,India,
GBT,Gorgan Airport,36.909401,54.401299,Iran,
GOZ,Gorna Oryahovitsa Airport,43.15144,25.712879,Bulgaria,
RGK,Gorno-Altaysk Airport,51.969166,85.836388,Russia,
GKA,Goroka Airport,-6.08168,145.3918,Papua New Guinea,
GTO,Gorontalo Jalaluddin Airport,0.637119,122.8498,Indonesia,
GSH,Goshen Municipal Airport,41.52639,-85.794167,United States,
GSE,Gothenburg City Airport,57.774719,11.87037,Sweden,
GOT,Gothenburg Landvetter Airport,57.66283,12.27981,Sweden,
GOV,Gove Airport,-12.271392,136.82016,Australia,
GVR,Governador Valadares Airport,-18.896944,-41.986111,Brazil,
GHB,Governor's Harbour Airport,25.2847,-76.331001,Bahamas,
GRW,Graciosa Airport,39.092159,-28.0298,Portugal,
GFN,Grafton Clarence Valley Regional Airport,-29.75,153.029999,Australia,
LPA,Gran Canaria Airport,27.931881,-15.3865,Spain,
GRX,Granada Federico Garcia Lorca Airport,37.188728,-3.77735,Spain,
GCN,Grand Canyon National Park Airport,35.951942,-112.147499,United States,
GCW,Grand Canyon West Airport,35.990398,-113.816002,United States,
GFK,Grand Forks International Airport,47.949249,-97.176102,United States,
GRI,Grand Island Central Nebraska Regional Airport,40.967541,-98.309601,United States,
GJT,Grand Junction Regional Airport,39.12241,-108.526001,United States,
GRM,Grand Marais Cook County Airport,47.838333,-90.383057,United States,
GRR,Grand Rapids Gerald R. Ford International Airport,42.880829,-85.522797,United States,
GPZ,Grand Rapids Itsaca County Airport,47.214443,-93.511108,United States,
GDT,Grand Turk International Airport,21.44453,-71.142303,Turks And Caicos Islands,
YQU,Grande Prairie Airport,55.179722,-118.885002,Canada,
GNT,Grants Milan Municipal,35.169025,-107.90316,United States,
GFR,Granville Airport,48.883099,-1.56417,France,
KGX,Grayling Airport,62.895279,-160.0625,United States,
GRZ,Graz Airport,46.991058,15.43962,Austria,
GBD,Great Bend Airport,38.34425,-98.8591,United States,
GTF,Great Falls International Airport,47.482651,-111.370003,United States,
GHC,Great Harbour Cay Airport,25.7383,-77.840103,Bahamas,
BGM,Greater Binghamton Airport,42.208611,-75.979698,United States,
CBE,Greater Cumberland Regional Airport,39.615398,-78.760902,United States,
IKK,Greater Kankakee Airport,41.074471,-87.845665,United States,
GXY,Greeley Weld County Airport,40.427757,-104.636864,United States,
GRB,Green Bay Austin Straubel International Airport,44.484631,-88.1297,United States,
GNI,Green Island Airport,22.672998,121.466316,Taiwan,
GCY,Greeneville Greene County Municipal Airport,36.193001,-82.815102,United States,
GSO,Greensboro Piedmont Triad International Airport,36.097752,-79.937302,United States,
GDC,Greenville Donaldson Center Airport,34.75,-82.370003,United States,
GMU,Greenville Downtown Airport,34.848057,-82.349998,United States,
GVT,Greenville Majors Airport,33.067829,-96.0653,United States,
GLH,Greenville Mid Delta Regional Airport,33.484444,-90.985001,United States,
PGV,Greenville Pitt Airport,35.63525,-77.3853,United States,
GSP,Greenville-Spartanburg International Airport,34.89566,-82.218803,United States,
GRD,Greenwood County Airport,34.248699,-82.159103,United States,
GWO,Greenwood Leflore Airport,33.49432,-90.084702,United States,
GND,Grenada Maurice Bishop International Airport,12.00424,-61.786098,Grenada,
QYG,Grenchen Airport,47.181389,7.416944,Switzerland,
GNB,Grenoble Isere Airport,45.362926,5.332563,France,
GMN,Greymouth Airport,-42.4617,171.190002,New Zealand,
GFF,Griffith Airport,-34.251667,146.059998,Australia,
GRY,Grimsey Airport,66.54583,-18.016666,Iceland,
YGZ,Grise Fiord Airport,76.426109,-82.909103,Canada,
GNA,Grodno Hrodna Airport,53.605801,24.053905,Belarus,
GRQ,Groningen Airport Eelde,53.11972,6.579444,Netherlands,
GTE,Groote Eylandt Airport,-13.972356,136.458435,Australia,
GRS,Grosseto Airport,42.759739,11.07189,Italy,
GRV,Grozny Airport,43.388199,45.699684,Russia,
GDL,Guadalajara International Airport,20.521799,-103.310997,Mexico,
GGJ,Guaira Airport,-24.0811,-54.1917,Brazil,
GUM,Guam Antonio B. Won Pat International Airport,13.48387,144.797104,Guam,
GNM,Guanambi Airport,-14.2082,-42.746101,Brazil,
GYS,Guangyuan Panlong Airport,32.389999,105.693336,China,
CAN,Guangzhou Baiyun International Airport,23.392429,113.298698,China,
GAO,Guantanamo Mariana Grajales Airport,20.085409,-75.158302,Cuba,
GPI,Guapi Airport,2.570133,-77.898598,Colombia,
